facility_id,facility_name,mflcode,county_name,subcounty_name,owner,sdp,agency,emr,emrstatus,infrastructuretype,latitude,longitude,date_created,level_of_care_name
2540, South B Police Band,13444,Nairobi,Starehe,Ministry of Health,CIHEB CONNECT,CDC,,,On Premises,Not Found,Not Found,7/13/2025 5:15,
2658, Zimmerman Pickens Dispensary,28537,Nairobi,Roysambu,Ministry of Health,Fahari ya Jamii,DOS,KenyaEMR,Active,On Cloud,Not Found,Not Found,7/13/2025 5:15,
986,12 Engineers,17486,Kiambu,Thika Town,Ministry of Health,HJF-Nairobi,DOD,KenyaEMR,Active,On Premises,-1.07354,37.14413,7/13/2025 5:15,
2667,3KR Health Centre,14181,Nakuru,Nakuru East,Armed Forces,HJF-Nairobi,DOD,KenyaEMR,Active,On Premises,Not Found,Not Found,7/13/2025 5:15,
1739,4th Brigade,15166,Laikipia,Laikipia East,Armed Forces,HJF-Nairobi,DOD,KenyaEMR,Active,On Premises,Not Found,Not Found,7/13/2025 5:15,
100,A.C.K Butonge Dispensary,15837,Bungoma,Sirisia,Christian Health Association of Kenya,No Partner,No Agency,,,On Premises,Not Found,Not Found,7/13/2025 5:15,
2543,AAR Clinic Sarit Centre (Westlands),16796,Nairobi,Westlands,Private Enterprise (Institution),Fahari ya Jamii,DOS,KenyaEMR,Active,On Premises,-1.2617,36.80211,7/13/2025 5:15,
2603,AAR Gwh Health Care Ltd,19958,Nairobi,Kibra,Private Enterprise (Institution),Fahari ya Jamii,DOS,KenyaEMR,Active,On Cloud,-1.29467,36.80897,7/13/2025 5:15,
1002,AAR Health Care Ruaka,21981,Kiambu,Kiambaa,Private Practice - General Practitioner,No Partner,No Agency,,,On Premises,Not Found,Not Found,7/13/2025 5:15,
1490,AAR Health Care-Kisumu,20956,Kisumu,Kisumu Central,Private Practice - General Practitioner,Nuru Ya Mtoto,DOS,KenyaEMR,Active,On Premises,-0.10465,34.75328,7/13/2025 5:15,
2668,AAR Nakuru Clinic,14183,Nakuru,Nakuru West,Non-Governmental Organizations,No Partner,No Agency,,,On Premises,-0.23285,36.04388,7/13/2025 5:15,
3166,Abidha Health Centre,13461,Siaya,Rarieda,Ministry of Health,CHS Shinda Tena,CDC,KenyaEMR,Active,On Cloud,-0.15902,34.41064,7/13/2025 5:15,
232,Aboloi Dispensary,15789,Busia,Teso North,Ministry of Health,Dumisha Afya,DOS,,,On Premises,0.65654,34.39563,7/13/2025 5:15,
207,Ace Africa (k) Wellness Centre,20823,Bungoma,Kanduyi,Non-Governmental Organizations,Dumisha Afya,DOS,KenyaEMR,Active,On Premises,0.2456,34.256,7/13/2025 5:15,
390,Acef Ena Health Centre,12791,Embu,Runyenjes,Other Faith Based,Jamii Tekelezi,DOS,KenyaEMR,Active,On Premises,-0.47344,37.55271,7/13/2025 5:15,
624,ACK Dispensary (Isiolo),11918,Isiolo,Isiolo,Christian Health Association of Kenya,No Partner,No Agency,,,On Premises,0.35699,37.57572,7/13/2025 5:15,
3311,Acode Medical Clinic Maungu,11195,Taita Taveta,Voi,Private Enterprise (Institution),No Partner,No Agency,,,On Premises,-3.55733,38.75037,7/13/2025 5:15,
1007,ADC Danisa Dispensary,11196,Kilifi,Magarini,Non-Governmental Organizations,Stawisha Pwani,DOS,KenyaEMR,Active,On Premises,-3.05351,39.50986,7/13/2025 5:15,
418,Adiedo Dispensary,13463,Homa Bay,Rachuonyo North,Ministry of Health,LVCT Vukisha 95,CDC,KenyaEMR,Active,On Cloud,-0.42727,34.60247,7/13/2025 5:15,
1351,Administration Police Dispensary (Kisumu),13464,Kisumu,Kisumu Central,Ministry of Health,CIHEB Entrench,CDC,KenyaEMR,Active,On Cloud,Not Found,Not Found,7/13/2025 5:15,
1970,Administration Police Senior Staff College Dispensary,18171,Makueni,Kilome,Ministry of Health,CIHEB PACT IMARA,CDC,KenyaEMR,Active,On Premises,Not Found,Not Found,7/13/2025 5:15,
1008,Adu Dispensary,11198,Kilifi,Magarini,Ministry of Health,Stawisha Pwani,DOS,KenyaEMR,Active,On Premises,-2.83976,39.98014,7/13/2025 5:15,
2572,Adventist Centre for Care and Support (Kilimani),18535,Nairobi,Dagoretti North,Other Faith Based,No Partner,No Agency,,,On Cloud,-1.28899,36.80751,7/13/2025 5:15,
2802,Afraha Maternity and Nursing Home,18382,Nakuru,Nakuru East,Private Practice,Tujenge Jamii Activity,DOS,KenyaEMR,Active,On Premises,-0.29746,36.07421,7/13/2025 5:15,
2627,Africare Ltd NHIF clinic,22866,Nairobi,Kibra,Private Practice - Private Company,No Partner,No Agency,,,On Premises,Not Found,Not Found,7/13/2025 5:15,
2377,Afwani Medical Centre,12865,Nairobi,Kamukunji,Private Enterprise (Institution),Fahari ya Jamii,DOS,KenyaEMR,Active,On Cloud,Not Found,Not Found,7/13/2025 5:15,
2598,Afya Bora Health Care,19515,Nairobi,Westlands,Non-Governmental Organizations,No Partner,No Agency,,Stalled/Inactive,On Premises,-1.26779,36.75751,7/13/2025 5:15,
2378,Aga Khan Hospital,12867,Nairobi,Westlands,Private Enterprise (Institution),No Partner,No Agency,,Stalled/Inactive,On Premises,-1.262231,36.817897,7/13/2025 5:15,
1352,Aga Khan Hospital (Kisumu),13465,Kisumu,Kisumu Central,Private Enterprise (Institution),Nuru Ya Mtoto,DOS,KenyaEMR,Active,On Premises,-0.09937,34.75621,7/13/2025 5:15,
2223,Aga Khan Hospital (Mombasa),11203,Mombasa,Mvita,Private Enterprise (Institution),No Partner,No Agency,,,On Premises,-4.07012,39.67003,7/13/2025 5:15,
419,Agawo Health Centre,13466,Homa Bay,Rachuonyo South,Ministry of Health,HOMA BAY CHMT,CDC,KenyaEMR,Active,On Cloud,Not Found,Not Found,7/13/2025 5:15,
2092,Agenga Dispensary,13467,Migori,Nyatike,Ministry of Health,CIHEB Entrench,CDC,KenyaEMR,Active,On Cloud,-0.91877,34.23407,7/13/2025 5:15,
233,Agenga Dispensary (Samia),15790,Busia,Samia,Ministry of Health,Dumisha Afya,DOS,KenyaEMR,Stalled/Inactive,On Premises,0.25266,34.07067,7/13/2025 5:15,
1353,Ahero County Hospital,13468,Kisumu,Nyando,Ministry of Health,CIHEB Entrench,CDC,KenyaEMR,Active,On Cloud,-0.17321,34.92367,7/13/2025 5:15,
1465,Ahero Medical Centre,18291,Kisumu,Nyando,Private Practice - Nurse / Midwife,Kisumu CHMT CoAg (Uzima ToGo),CDC,KenyaEMR,Active,On Cloud,-0.17296,34.92412,7/13/2025 5:15,
1963,AHF EMALI  Clinic,17445,Makueni,Kibwezi West,Other Faith Based,No Partner,No Agency,KenyaEMR,Stalled/Inactive,On Premises,Not Found,Not Found,7/13/2025 5:15,
2388,AHF Mathare Blue House Clinic,12885,Nairobi,Kamukunji,Non-Governmental Organizations,Aids Healthcare Foundation Kenya,AHF,KenyaEMR,Active,On Premises,Not Found,Not Found,7/13/2025 5:15,
2618,AHF Parklands Clinic,20736,Nairobi,Westlands,Private,Aids Healthcare Foundation Kenya,AHF,KenyaEMR,Active,On Premises,Not Found,Not Found,7/13/2025 5:15,
2311,AHF Soko Clinic,18804,Mombasa,Nyali,Non-Governmental Organizations,Aids Healthcare Foundation Kenya,AHF,KenyaEMR,Discontinued,On Premises,-4.04153,39.68325,7/13/2025 5:15,
704,Ahmadiya Hospital,15791,Kakamega,Mumias East,Other Faith Based,Nuru Ya Mtoto,DOS,,,On Premises,0.31409,34.57571,7/13/2025 5:15,
1960,AIC Kalamba Dispensary,17431,Makueni,Makueni,Other Faith Based,CHAK CHAP STAWISHA,CDC,KenyaEMR,Active,On Premises,-1.86649,37.51275,7/13/2025 5:15,
866,AIC Litein Mission Hospital,14178,Kericho,Bureti,Other Faith Based,HJF-South Rift Valley,DOD,KenyaEMR,Active,On Premises,-0.58621,35.1865,7/13/2025 5:15,
1058,AIC Malanga,11553,Kilifi,Ganze,Christian Health Association of Kenya,Stawisha Pwani,DOS,KenyaEMR,Active,On Premises,Not Found,Not Found,7/13/2025 5:15,
1600,AIC Zombe  Health Centre,12860,Kitui,Kitui East,Christian Health Association of Kenya,CHAK CHAP STAWISHA,CDC,KenyaEMR,Active,On Premises,Not Found,Not Found,7/13/2025 5:15,
619,Aimo Dispensary,22860,Homa Bay,Rachuonyo South,Ministry of Health,No Partner,No Agency,,,On Premises,Not Found,Not Found,7/13/2025 5:15,
2089,Aina Dispensary,20030,Meru,Tigania West,Other Faith Based,DREAM Kenya Trust,German cooperation and Community of SantEgidio,KenyaEMR,Active,On Premises,Not Found,Not Found,7/13/2025 5:15,
867,Ainamoi Health Centre,14192,Kericho,Ainamoi,Ministry of Health,HJF-South Rift Valley,DOD,KenyaEMR,Active,On Premises,-0.299435,35.27442,7/13/2025 5:15,
1354,Airport Health Centre,13469,Kisumu,Kisumu West,Local Authority,Nuru Ya Mtoto,DOS,KenyaEMR,Active,On Premises,Not Found,Not Found,7/13/2025 5:15,
697,Ajam Mission Health Centre,18398,Kajiado,Kajiado West,Non-Governmental Organizations,No Partner,No Agency,KenyaEMR,Active,On Premises,Not Found,Not Found,7/13/2025 5:15,
2019,Akachiu Health Centre,11923,Meru,Igembe South,Ministry of Health,Jamii Tekelezi,DOS,KenyaEMR,Active,On Premises,0.18318,37.95661,7/13/2025 5:15,
3167,Akala Health Centre,13471,Siaya,Gem,Ministry of Health,CHS Shinda Tena,CDC,KenyaEMR,Active,On Cloud,0.05961,34.42139,7/13/2025 5:15,
2300,Akemo Medical Clinic,17770,Mombasa,Likoni,Private Practice - Nurse / Midwife,No Partner,No Agency,,,On Premises,-4.08743,39.65945,7/13/2025 5:15,
2876,Akemo Nursing Home,14194,Narok,Transmara West,Private Enterprise (Institution),HJF-South Rift Valley,DOD,,Stalled/Inactive,On Premises,-0.93404,34.84508,7/13/2025 5:15,
234,Akichelesit Dispensary,15792,Busia,Teso North,Ministry of Health,Dumisha Afya,DOS,,,On Premises,0.69133,34.34332,7/13/2025 5:15,
311,Akiriamasi Dispensary,21034,Busia,Teso South,Ministry of Health,No Partner,No Agency,,,On Premises,0.54572,34.21068,7/13/2025 5:15,
324,Akukuranut Drop Off Point,23509,Busia,Teso North,Non-Governmental Organizations,Dumisha Afya,DOS,KenyaEMR,Active,On Premises,Not Found,Not Found,7/13/2025 5:15,
2224,Al Farooq Hospital,11208,Mombasa,Mvita,Private Practice - Private Institution Academic,Stawisha Pwani,DOS,KenyaEMR,Active,On Premises,-4.04899,39.66513,7/13/2025 5:15,
3718,Alale Health Centre,16367,West Pokot,Pokot North,Ministry of Health,AMPATH Uzima,DOS,AMRS,Active,On Premises,2.25005,35.02779,7/13/2025 5:15,
2315,Al-Firdaus Health Care,19629,Mombasa,Mvita,Private Practice - General Practitioner,Stawisha Pwani,DOS,,,On Premises,-4.04535,39.66511,7/13/2025 5:15,
2800,Algadir Medical Centre,18009,Nakuru,Nakuru East,Ministry of Health,Tujenge Jamii Activity,DOS,KenyaEMR,Active,On Premises,Not Found,Not Found,7/13/2025 5:15,
414,Alikune Dispensary,17012,Garissa,Dadaab,Ministry of Health,No Partner,No Agency,,Stalled/Inactive,On Premises,-0.2067,40.0079,7/13/2025 5:15,
326,ALoete Disp,24603,Busia,Teso North,Ministry of Health,No Partner,No Agency,,,On Premises,Not Found,Not Found,7/13/2025 5:15,
3638,Alphima Medical Clinic,23646,Uasin Gishu,Moiben,Private Practice - Clinical Officer,AMPATH Uzima,DOS,AMRS,Active,On Premises,Not Found,Not Found,7/13/2025 5:15,
420,Alum Beach Dispensary,13472,Homa Bay,Rachuonyo North,Ministry of Health,LVCT Vukisha 95,CDC,KenyaEMR,Active,On Cloud,-0.44673,34.48747,7/13/2025 5:15,
3168,Aluor Mission Health Centre,13473,Siaya,Gem,Kenya Episcopal Conference-Catholic Secretariat,Kenya Conference of Catholic Bishops-  ACTS,CDC,KenyaEMR,Active,On Premises,0.01047,34.465,7/13/2025 5:15,
235,Alupe Sub County Referral Hospital,15795,Busia,Teso South,Ministry of Health,Dumisha Afya,DOS,KenyaEMR,Active,On Premises,Not Found,Not Found,7/13/2025 5:15,
1707,Alwalidayn Dispensary,22059,Kwale,Msambweni,Other Faith Based,Mkomani Clinic society,CDC,KenyaEMR,Active,On Premises,Not Found,Not Found,7/13/2025 5:15,
236,Amaase Dispensary,15797,Busia,Teso South,Ministry of Health,Dumisha Afya,DOS,KenyaEMR,Active,On Premises,Not Found,Not Found,7/13/2025 5:15,
3030,Amaiga Dispensary (Manga),20684,Nyamira,Manga,Ministry of Health,Nuru Ya Mtoto,DOS,,,On Premises,0.4638,34.92974,7/13/2025 5:15,
3702,Amakuriat Dispensary,14198,West Pokot,Pokot North,Other Faith Based,AMPATH Uzima,DOS,AMRS,Active,On Premises,2.27808,35.00542,7/13/2025 5:15,
1211,Amani Medical Centre (Suneka),13474,Kisii,Bonchari,Private Enterprise (Institution),LVCT Vukisha 95,CDC,KenyaEMR,Active,On Cloud,-0.67886,34.70765,7/13/2025 5:15,
1009,Amani Medical Clinic (Kilifi),11217,Kilifi,Kilifi North,Private Enterprise (Institution),Stawisha Pwani,DOS,KenyaEMR,Active,On Premises,-3.64157,39.84783,7/13/2025 5:15,
1476,Amani Medical Clinic Yatta,18921,Kisumu,Nyando,Private Practice - Nurse / Midwife,No Partner,No Agency,KenyaEMR,Active,On Premises,-1.52265,37.33527,7/13/2025 5:15,
2942,Amatierio Health Centre,13475,Nyamira,Borabu,Ministry of Health,Nuru Ya Mtoto,DOS,KenyaEMR,Active,On Premises,Not Found,Not Found,7/13/2025 5:15,
3169,Ambira Sub-County Hospital,13476,Siaya,Ugunja,Ministry of Health,Siaya CHMT,CDC,KenyaEMR,Active,On Cloud,Not Found,Not Found,7/13/2025 5:15,
640,Amboseli Dispensary,14200,Kajiado,Loitokitok,Ministry of Health,Fahari ya Jamii,DOS,KenyaEMR,Active,On Cloud,-2.74492,37.3667,7/13/2025 5:15,
306,Amongura Community Dispensary,20170,Busia,Teso South,Ministry of Health,Dumisha Afya,DOS,KenyaEMR,Active,On Premises,Not Found,Not Found,7/13/2025 5:15,
547,Amoyo Dispensary,16768,Homa Bay,Ndhiwa,Ministry of Health,LVCT Vukisha 95,CDC,KenyaEMR,Active,On Cloud,-0.82297,34.35597,7/13/2025 5:15,
237,Amukura Health Centre,15798,Busia,Teso South,Ministry of Health,Dumisha Afya,DOS,KenyaEMR,Active,On Premises,0.56216,34.27321,7/13/2025 5:15,
238,Amukura Mission Health Centre,15799,Busia,Teso South,Kenya Episcopal Conference-Catholic Secretariat,Dumisha Afya,DOS,KenyaEMR,Active,On Premises,0.572,34.27269,7/13/2025 5:15,
2379,Amurt Health Centre,12870,Nairobi,Westlands,Non-Governmental Organizations,Fahari ya Jamii,DOS,KenyaEMR,Active,On Premises,-1.2658,36.73778,7/13/2025 5:15,
2225,Amurt Health Centre (Likoni),11221,Mombasa,Likoni,Private Enterprise (Institution),No Partner,No Agency,,Stalled/Inactive,On Premises,-4.07765,39.65362,7/13/2025 5:15,
3452,Andersen Medical Centre,14203,Trans Nzoia,Endebess,Private Enterprise (Institution),AMPATH Uzima,DOS,KenyaEMR,Active,On Premises,1.20451,34.78798,7/13/2025 5:15,
1355,Andingo Opanga Dispensary,13477,Kisumu,Nyakach,Ministry of Health,CIHEB Entrench,CDC,KenyaEMR,Active,On Premises,Not Found,Not Found,7/13/2025 5:15,
2093,Aneko Dispensary,13478,Migori,Nyatike,Ministry of Health,CIHEB Entrench,CDC,KenyaEMR,Active,On Premises,-0.98,34.15,7/13/2025 5:15,
421,Ang’iya Dispensary,13479,Homa Bay,Mbita,Ministry of Health,LVCT Vukisha 95,CDC,KenyaEMR,Active,On Cloud,Not Found,Not Found,7/13/2025 5:15,
2201,Angaga Dispensary,17050,Migori,Awendo,Ministry of Health,CIHEB Entrench,CDC,KenyaEMR,Active,On Premises,-0.98123,34.61518,7/13/2025 5:15,
2877,Angata Health Centre,14205,Narok,Transmara West,Ministry of Health,HJF-South Rift Valley,DOD,KenyaEMR,Active,On Premises,-1.37645,34.77567,7/13/2025 5:15,
1494,Angola Community Dispensary,21236,Kisumu,Kisumu East,Ministry of Health,Nuru Ya Mtoto,DOS,KenyaEMR,Active,On Premises,-0.12713,34.8245,7/13/2025 5:15,
239,Angurai Health Centre,15800,Busia,Teso North,Ministry of Health,Dumisha Afya,DOS,AMRS,Active,On Premises,0.70935,34.35149,7/13/2025 5:15,
2094,Anjego Dispensary,13480,Migori,Suna East,Ministry of Health,CIHEB Entrench,CDC,KenyaEMR,Active,On Cloud,-1.01652,34.44287,7/13/2025 5:15,
913,Anmer Dispensary,10029,Kiambu,Kiambu Town,Ministry of Health,LVCT Dhibiti,CDC,KenyaEMR,Active,On Cloud,-1.13699,36.84742,7/13/2025 5:15,
2669,Annex Hospital (Nakuru),14207,Nakuru,Nakuru West,Ministry of Health,Tujenge Jamii Activity,DOS,KenyaEMR,Active,On Premises,-0.16938,36.04868,7/13/2025 5:15,
3170,Anyuongi Dispensary,13482,Siaya,Bondo,Ministry of Health,CHS Shinda Tena,CDC,KenyaEMR,Active,On Cloud,-0.17618,34.27613,7/13/2025 5:15,
1493,Anza Mapema Clinic,21220,Kisumu,Kisumu Central,Non-Governmental Organizations,CIHEB Entrench,CDC,KenyaEMR,Active,On Premises,Not Found,Not Found,7/13/2025 5:15,
1622,AP Kanyonyo Dispensary,20425,Kitui,Kitui Rural,Ministry of Health,CIHEB PACT IMARA,CDC,KenyaEMR,Active,On Premises,Not Found,Not Found,7/13/2025 5:15,
705,Ap Line Dispensary,15801,Kakamega,Lurambi,Ministry of Health,Nuru Ya Mtoto,DOS,KenyaEMR,Active,On Premises,0.27532,34.75514,7/13/2025 5:15,
312,Apatit Dispensary,21035,Busia,Teso South,Ministry of Health,No Partner,No Agency,,,On Premises,Not Found,Not Found,7/13/2025 5:15,
1795,Apdk Dispensary (Machakos),11931,Machakos,Machakos,Ministry of Health,No Partner,No Agency,,,On Premises,-1.5195,37.26185,7/13/2025 5:15,
240,Apokor Dispensary,15802,Busia,Teso South,Ministry of Health,Dumisha Afya,DOS,,Stalled/Inactive,On Premises,0.52922,34.28329,7/13/2025 5:15,
322,Appex Hosp,21136,Busia,Teso North,Private Practice - Clinical Officer,No Partner,No Agency,,,On Premises,Not Found,Not Found,7/13/2025 5:15,
706,Approved Dispensary,15804,Kakamega,Lurambi,Ministry of Health,Nuru Ya Mtoto,DOS,KenyaEMR,Active,On Premises,0.29318,34.76131,7/13/2025 5:15,
1796,Approved School Dispensary (Machakos),11932,Machakos,Machakos,Ministry of Health,CIHEB PACT IMARA,CDC,KenyaEMR,Active,On Premises,-1.58672,37.25784,7/13/2025 5:15,
2380,APTC Health Center,12871,Nairobi,Embakasi East,Armed Forces,CIHEB CONNECT,CDC,KenyaEMR,Active,On Premises,Not Found,Not Found,7/13/2025 5:15,
625,Apu Dispensary,11933,Isiolo,Isiolo,Ministry of Health,No Partner,No Agency,,Stalled/Inactive,On Premises,0.27955,37.54604,7/13/2025 5:15,
3131,Archers Post Health Centre,14212,Samburu,Samburu East,Kenya Episcopal Conference-Catholic Secretariat,Tujenge Jamii Activity,DOS,KenyaEMR,Active,On Premises,0.65141,37.5921,7/13/2025 5:15,
2670,Arimi Dispensary,14213,Nakuru,Molo,Ministry of Health,No Partner,No Agency,,,On Premises,-0.28251,35.85133,7/13/2025 5:15,
1356,Arito Langi Health Centre,13484,Kisumu,Seme,Ministry of Health,HJF-Kisumu West,DOD,KenyaEMR,Active,On Premises,Not Found,Not Found,7/13/2025 5:15,
1721,Arjijo Dispensary,14197,Laikipia,Laikipia North,Ministry of Health,No Partner,No Agency,,Stalled/Inactive,On Premises,0.30935,37.24632,7/13/2025 5:15,
2095,Arombe Dispensary,13486,Migori,Suna West,Ministry of Health,CIHEB Entrench,CDC,KenyaEMR,Active,On Premises,-1.03484,34.35083,7/13/2025 5:15,
622,Arombe Medical Centre,28500,Homa Bay,Ndhiwa,Ministry of Health,Kenya Conference of Catholic Bishops-  ACTS,CDC,KenyaEMR,Active,On Premises,Not Found,Not Found,7/13/2025 5:15,
42,Arroket Dispensary,14215,Bomet,Sotik,Private Enterprise (Institution),HJF-South Rift Valley,DOD,KenyaEMR,Active,On Premises,-0.61894,35.07315,7/13/2025 5:15,
327,Arror Health Centre,14216,Elgeyo Marakwet,Marakwet West,Kenya Episcopal Conference-Catholic Secretariat,AMPATH Uzima,DOS,,,On Premises,0.95125,35.62007,7/13/2025 5:15,
3132,Arsim Lutheran Health Center,14217,Samburu,Samburu North,Christian Health Association of Kenya,No Partner,No Agency,,,On Premises,Not Found,Not Found,7/13/2025 5:15,
1357,Asat Beach Dispensary,13487,Kisumu,Seme,Ministry of Health,HJF-Kisumu West,DOD,KenyaEMR,Active,On Premises,-0.18267,34.51846,7/13/2025 5:15,
3265,Asayi Dispensary,16783,Siaya,Gem,Ministry of Health,CHS Shinda Tena,CDC,KenyaEMR,Active,On Cloud,0.1176,34.37246,7/13/2025 5:15,
3287,Ashburn Ohuru Nursing Home,17524,Siaya,Alego Usonga,Other Faith Based,Siaya CHMT,CDC,KenyaEMR,Active,On Premises,Not Found,Not Found,7/13/2025 5:15,
2769,ASN Upendo Village Dispensary,15762,Nakuru,Naivasha,Ministry of Health,Tujenge Jamii Activity,DOS,KenyaEMR,Active,On Premises,-0.75748,36.47571,7/13/2025 5:15,
328,Assumption Sisters Dispensary,14218,Elgeyo Marakwet,Keiyo North,Other Faith Based,No Partner,No Agency,,,On Premises,0.71528,35.51798,7/13/2025 5:15,
555,Asumbi Annex Dispensary,16987,Homa Bay,Homa Bay Town,Kenya Episcopal Conference-Catholic Secretariat,No Partner,No Agency,,Stalled/Inactive,On Premises,-0.6246,34.50363,7/13/2025 5:15,
422,Asumbi Mission Hospital,13488,Homa Bay,Rangwe,Kenya Episcopal Conference-Catholic Secretariat,Kenya Conference of Catholic Bishops-  ACTS,CDC,KenyaEMR,Active,On Premises,Not Found,Not Found,7/13/2025 5:15,
601,Asumbi Teachers Training College,21118,Homa Bay,Rangwe,Private Practice - Nurse / Midwifery,No Partner,No Agency,,,On Premises,-0.6018,34.23737,7/13/2025 5:15,
573,Atela Health Centre,18610,Homa Bay,Kabondo Kasipul,Ministry of Health,HOMA BAY CHMT,CDC,KenyaEMR,Active,On Cloud,Not Found,Not Found,7/13/2025 5:15,
423,Atemo Health Centre,13489,Homa Bay,Kabondo Kasipul,Christian Health Association of Kenya,HOMA BAY CHMT,CDC,KenyaEMR,Active,On Cloud,-0.503,34.83291,7/13/2025 5:15,
1890,Athi Kamunyuni Health Centre,11934,Makueni,Kibwezi East,Ministry of Health,No Partner,No Agency,,Stalled/Inactive,On Premises,Not Found,Not Found,7/13/2025 5:15,
1625,Athi Mission Clinic,22085,Kitui,Kitui South,Faith Based,CHAK CHAP STAWISHA,CDC,KenyaEMR,Active,On Premises,Not Found,Not Found,7/13/2025 5:15,
1797,Athi River Health Centre,11936,Machakos,Athi River,Ministry of Health,CIHEB PACT IMARA,CDC,KenyaEMR,Active,On Cloud,-1.44961,36.98334,7/13/2025 5:15,
1798,Athi River Medical Services,11937,Machakos,Athi River,Private Enterprise (Institution),No Partner,No Agency,,,On Premises,-1.45772,36.97749,7/13/2025 5:15,
1000,Avenue Healthcare Thika,20628,Kiambu,Thika Town,Private Practice - General Practitioner,No Partner,No Agency,,,On Premises,-1.03879,37.07748,7/13/2025 5:15,
2381,Avenue Hospital,12874,Nairobi,Westlands,Private Enterprise (Institution),Fahari ya Jamii,DOS,KenyaEMR,Active,On Premises,-1.264508,36.817897,7/13/2025 5:15,
1480,Avenue Hospital Kisumu,20123,Kisumu,Kisumu Central,Private Enterprise (Institution),Nuru Ya Mtoto,DOS,KenyaEMR,Active,On Premises,-0.088626,34.770387,7/13/2025 5:15,
613,Awach Health Centre,21489,Homa Bay,Kabondo Kasipul,Ministry of Health,No Partner,No Agency,,,On Premises,Not Found,Not Found,7/13/2025 5:15,
1358,Awasi Mission Health Center,13491,Kisumu,Nyando,Kenya Episcopal Conference-Catholic Secretariat,Kenya Conference of Catholic Bishops-  ACTS,CDC,KenyaEMR,Active,On Premises,-0.16043,35.07395,7/13/2025 5:15,
2096,Awendo Sub-County Hospital,13492,Migori,Awendo,Ministry of Health,CIHEB Entrench,CDC,KenyaEMR,Active,On Cloud,Not Found,Not Found,7/13/2025 5:15,
3031,Baari Health Centre,10043,Nyandarua,Ndaragwa,Ministry of Health,Jamii Tekelezi,DOS,KenyaEMR,Active,On Premises,-0.01049,36.4143,7/13/2025 5:15,
2382,Babadogo (EDARP),12875,Nairobi,Ruaraka,Kenya Episcopal Conference-Catholic Secretariat,Coptic Orthodox Church,CDC,ECare,Active,On Premises,-1.23916,36.8864,7/13/2025 5:15,
2383,Babadogo Health Centre,12876,Nairobi,Ruaraka,Local Authority,CIHEB CONNECT,CDC,KenyaEMR,Active,On Cloud,-1.2441,36.88416,7/13/2025 5:15,
1990,Badassa Dispensary,11940,Marsabit,Saku,Ministry of Health,No Partner,No Agency,,,On Premises,2.26571,38.02626,7/13/2025 5:15,
186,Bahai Dispensary,17190,Bungoma,Kimilili,Ministry of Health,Dumisha Afya,DOS,KenyaEMR,Active,On Premises,0.73894,34.74928,7/13/2025 5:15,
2672,Bahati District Hospital,14224,Nakuru,Nakuru North,Ministry of Health,Tujenge Jamii Activity,DOS,KenyaEMR,Active,On Premises,-0.17031,36.12368,7/13/2025 5:15,
2384,Bahati Health Centre,12879,Nairobi,Makadara,Local Authority,Fahari ya Jamii,DOS,KenyaEMR,Active,On Premises,-1.28891,36.86299,7/13/2025 5:15,
2210,Bahati Medical Clinic Migori,17733,Migori,Suna West,Private Practice - General Practitioner,No Partner,No Agency,,,On Premises,-1.0682,34.46918,7/13/2025 5:15,
2671,Bahati Rural Health Centre,14223,Nakuru,Nakuru North,Ministry of Health,Tujenge Jamii Activity,DOS,KenyaEMR,Active,On Premises,Not Found,Not Found,7/13/2025 5:15,
2293,Bakarani Community Clinic,16532,Mombasa,Nyali,Private Enterprise (Institution),No Partner,No Agency,,Stalled/Inactive,On Premises,-4.01513,39.69491,7/13/2025 5:15,
1011,Bakhita Dispensary,11236,Kilifi,Malindi,Non-Governmental Organizations,No Partner,No Agency,,Stalled/Inactive,On Premises,-3.17445,40.06918,7/13/2025 5:15,
3171,Bama Hospital,13493,Siaya,Alego Usonga,Private Enterprise (Institution),Siaya CHMT,CDC,KenyaEMR,Active,On Cloud,0.05668,34.29407,7/13/2025 5:15,
1013,Bamba Maternity Nursing Home,11238,Kilifi,Ganze,Private Enterprise (Institution),No Partner,No Agency,,,On Premises,Not Found,Not Found,7/13/2025 5:15,
1012,Bamba Sub-County Hospital,11237,Kilifi,Ganze,Ministry of Health,Stawisha Pwani,DOS,KenyaEMR,Active,On Premises,Not Found,Not Found,7/13/2025 5:15,
3032,Bamboo Health Centre,10044,Nyandarua,Kinangop,Ministry of Health,Jamii Tekelezi,DOS,KenyaEMR,Active,On Premises,-0.86276,36.56636,7/13/2025 5:15,
2226,Bamburi Dispensary,11239,Mombasa,Nyali,Local Authority,Stawisha Pwani,DOS,KenyaEMR,Active,On Premises,-4.00435,39.69335,7/13/2025 5:15,
2227,Bamburi Medicare,11240,Mombasa,Nyali,Private Enterprise (Institution),Stawisha Pwani,DOS,,,On Premises,-4.00329,39.6986,7/13/2025 5:15,
2097,Bande Dispensary,13494,Migori,Nyatike,Ministry of Health,CIHEB Entrench,CDC,KenyaEMR,Active,On Premises,-1.03519,34.19766,7/13/2025 5:15,
3382,Bangali Dispensary,11242,Tana River,Bura,Ministry of Health,No Partner,No Agency,,Stalled/Inactive,On Premises,-0.72541,39.01666,7/13/2025 5:15,
1982,Banisa Sub County Hospital,13300,Mandera,Banissa,Ministry of Health,No Partner,No Agency,,,On Premises,Not Found,Not Found,7/13/2025 5:15,
2673,Banita Dispensary,14226,Nakuru,Rongai,Ministry of Health,No Partner,No Agency,,Stalled/Inactive,On Premises,-0.07525,36.07665,7/13/2025 5:15,
3639,Banja Health Centre,15805,Vihiga,Hamisi,Ministry of Health,Nuru Ya Mtoto,DOS,KenyaEMR,Active,On Premises,0.04438,34.8298,7/13/2025 5:15,
2228,Baobab Clinic - Bamburi Cement,11243,Mombasa,Nyali,Private Enterprise (Institution),Stawisha Pwani,DOS,KenyaEMR,Active,On Premises,-3.96975,39.7061,7/13/2025 5:15,
1014,Baolala Dispensary,11244,Kilifi,Malindi,Ministry of Health,Stawisha Pwani,DOS,KenyaEMR,Active,On Premises,-3.17962,39.78562,7/13/2025 5:15,
3172,Bar Achuth Dispensary,13495,Siaya,Ugenya,Ministry of Health,Siaya CHMT,CDC,KenyaEMR,Active,On Premises,0.28968,34.17204,7/13/2025 5:15,
3173,Bar Agulu Dispensary,13496,Siaya,Alego Usonga,Ministry of Health,Siaya CHMT,CDC,KenyaEMR,Active,On Cloud,0.04205,34.3338,7/13/2025 5:15,
3174,Bar Aluru Dispensary (Rarieda),13497,Siaya,Rarieda,Ministry of Health,CHS Shinda Tena,CDC,KenyaEMR,Active,On Cloud,-0.119978,34.3383,7/13/2025 5:15,
2611,Bar Hostess Empowerment and Support Programme (Makadara),20206,Nairobi,Makadara,Non-Governmental Organizations,No Partner,No Agency,,,On Premises,-1.29381,36.84889,7/13/2025 5:15,
1359,Bar Korwa Health Centre,13498,Kisumu,Seme,Kenya Episcopal Conference-Catholic Secretariat,HJF-Kisumu West,DOD,KenyaEMR,Active,On Premises,Not Found,Not Found,7/13/2025 5:15,
3266,Bar Ndege Dispensary,16784,Siaya,Ugenya,Ministry of Health,Siaya CHMT,CDC,KenyaEMR,Active,On Cloud,-0.29962,34.34579,7/13/2025 5:15,
3175,Bar Olengo Dispensary,13499,Siaya,Alego Usonga,Ministry of Health,Siaya CHMT,CDC,KenyaEMR,Active,On Premises,0.015152,34.21078,7/13/2025 5:15,
3267,Bar Sauri Health Centre,16785,Siaya,Gem,Ministry of Health,CHS Shinda Tena,CDC,KenyaEMR,Active,On Cloud,Not Found,Not Found,7/13/2025 5:15,
3133,Baragoi Sub-County Hospital,14228,Samburu,Samburu North,Ministry of Health,Tujenge Jamii Activity,DOS,KenyaEMR,Active,On Premises,Not Found,Not Found,7/13/2025 5:15,
3406,Baragu Health Centre,11942,Tharaka-Nithi,Mwimbi,Ministry of Health,Jamii Tekelezi,DOS,KenyaEMR,Active,On Premises,-0.24794,37.67972,7/13/2025 5:15,
2385,Baraka Dispensary (Nairobi),12881,Nairobi,Ruaraka,Private Enterprise (Institution),Coptic Orthodox Church,CDC,KenyaEMR,Active,On Premises,-1.25756,36.858,7/13/2025 5:15,
2933,Baraka Hospital,17757,Narok,Narok West,Non-Governmental Organizations,HJF-South Rift Valley,DOD,KenyaEMR,Active,On Premises,Not Found,Not Found,7/13/2025 5:15,
2791,Bararget Dispensary,17302,Nakuru,Kuresoi South,Ministry of Health,No Partner,No Agency,,Stalled/Inactive,On Premises,-0.41505,35.73243,7/13/2025 5:15,
3300,Barding Dispensary,18396,Siaya,Alego Usonga,Ministry of Health,Siaya CHMT,CDC,KenyaEMR,Active,On Premises,0.01281,34.32742,7/13/2025 5:15,
1015,Baricho Dispensary,11248,Kilifi,Magarini,Ministry of Health,Stawisha Pwani,DOS,KenyaEMR,Active,On Premises,Not Found,Not Found,7/13/2025 5:15,
1138,Baricho Health Centre,10049,Kirinyaga,Kirinyaga West,Ministry of Health,LVCT Dhibiti,CDC,KenyaEMR,Active,On Cloud,-0.55313,37.23931,7/13/2025 5:15,
8,Baringo County Refferal Hospital,14607,Baringo,Baringo Central,Ministry of Health,Tujenge Jamii Activity,DOS,KenyaEMR,Active,On Premises,Not Found,Not Found,7/13/2025 5:15,
3134,Barsaloi GK Dispensary,14237,Samburu,Samburu North,Ministry of Health,No Partner,No Agency,,,On Premises,1.4362,36.8419,7/13/2025 5:15,
2304,Barsheba Medical Clinic,18071,Mombasa,Kisauni,Private Practice - Clinical Officer,No Partner,No Agency,,Stalled/Inactive,On Premises,-4.00313,39.71214,7/13/2025 5:15,
3589,Barsombe Dispensary,14239,Uasin Gishu,Soy,Ministry of Health,AMPATH Uzima,DOS,,,On Premises,0.89253,35.3301,7/13/2025 5:15,
1,Bartabwa Healty Centre,14241,Baringo,Baringo North,Ministry of Health,No Partner,No Agency,,Stalled/Inactive,On Premises,Not Found,Not Found,7/13/2025 5:15,
2797,Barut Dispensary,17793,Nakuru,Nakuru West,Local Authority,No Partner,No Agency,,,On Premises,-0.19625,36.03383,7/13/2025 5:15,
2,Barwessa Health Centre,14243,Baringo,Baringo North,Ministry of Health,Tujenge Jamii Activity,DOS,KenyaEMR,Active,On Premises,0.70307,35.69858,7/13/2025 5:15,
626,Basa Dispensary,11947,Isiolo,Merti,Ministry of Health,No Partner,No Agency,,,On Premises,1.1823,38.58158,7/13/2025 5:15,
1722,Base Medical Centre,14244,Laikipia,Laikipia East,Armed Forces,HJF-Nairobi,DOD,KenyaEMR,Active,On Premises,Not Found,Not Found,7/13/2025 5:15,
689,Beacon of Hope Clinic (Ongata Rongai),16667,Kajiado,Kajiado North,Private Practice - General Practitioner,Fahari ya Jamii,DOS,KenyaEMR,Active,On Premises,Not Found,Not Found,7/13/2025 5:15,
3079,Bellevue Health Centre,10055,Nyeri,Kieni West,Ministry of Health,NYERI COUNTY DEPARTMENT OF HEALTH SERVICES,CDC,KenyaEMR,Active,On Premises,-0.22811,36.73023,7/13/2025 5:15,
3268,Benga  Dispensary,16786,Siaya,Alego Usonga,Ministry of Health,Siaya CHMT,CDC,KenyaEMR,Active,On Premises,Not Found,Not Found,7/13/2025 5:15,
2674,Benmac Clinic,14247,Nakuru,Njoro,Private Enterprise (Institution),No Partner,No Agency,,Stalled/Inactive,On Premises,-0.37458,35.9445,7/13/2025 5:15,
1715,Bennedict XVI Dispensary,10056,Laikipia,Laikipia West,Kenya Episcopal Conference-Catholic Secretariat,Tujenge Jamii Activity,DOS,KenyaEMR,Active,On Premises,-0.03948,36.33457,7/13/2025 5:15,
914,Beta Care Nursing Home,10058,Kiambu,Githunguri,Ministry of Health,LVCT Dhibiti,CDC,KenyaEMR,Active,On Cloud,-1.06305,36.78275,7/13/2025 5:15,
2792,Bethania Clinic,17542,Nakuru,Gilgil,Private Practice - Nurse / Midwife,No Partner,No Agency,,,On Premises,-0.56696,36.11691,7/13/2025 5:15,
1714,Bethany Dispensary,23695,Kwale,Matuga,Other Faith Based,No Partner,No Agency,,Stalled/Inactive,On Premises,-4.1123,39.3347,7/13/2025 5:15,
3080,Bethsaida (PCEA) Dispensary (Nyeri),10063,Nyeri,Tetu,Christian Health Association of Kenya,No Partner,No Agency,,,On Premises,-0.491107,36.8937,7/13/2025 5:15,
2630,Better Living Hospital,23385,Nairobi,Dagoretti North,Seventh Day Adventist,Fahari ya Jamii,DOS,KenyaEMR,Active,On Cloud,Not Found,Not Found,7/13/2025 5:15,
1989,BEYOND ZERO MOBILE CLINIC,21926,Mandera,Mandera East,Unknown,No Partner,No Agency,,,On Premises,Not Found,Not Found,7/13/2025 5:15,
2626,BHESP,22863,Nairobi,Embakasi North,Non-Governmental Organizations,No Partner,No Agency,,,On Premises,Not Found,Not Found,7/13/2025 5:15,
2650,BHESP Mowlem Dice Clinic,27424,Nairobi,Embakasi West,Non-Governmental Organizations,Fahari ya Jamii,DOS,KenyaEMR,Active,On Premises,Not Found,Not Found,7/13/2025 5:15,
2628,BHESP--Roysambu,23200,Nairobi,Roysambu,Non-Governmental Organizations,CIHEB CONNECT,CDC,KenyaEMR,Active,On Cloud,Not Found,Not Found,7/13/2025 5:15,
2386,Biafra Lions Clinic,12883,Nairobi,Kamukunji,Private Practice - General Practitioner,CIHEB CONNECT,CDC,KenyaEMR,Active,On Premises,-1.28234,36.8485,7/13/2025 5:15,
2387,Biafra Medical Clinic,12884,Nairobi,Kamukunji,Private Practice - General Practitioner,Fahari ya Jamii,DOS,,,On Premises,-1.286837,36.849544,7/13/2025 5:15,
3499,Bidii Health Centre,18532,Trans Nzoia,Kwanza,Ministry of Health,AMPATH Uzima,DOS,KenyaEMR,Active,On Premises,1.05023,35.01692,7/13/2025 5:15,
3492,Bikeke Health Centre,16361,Trans Nzoia,Kiminini,Ministry of Health,AMPATH Uzima,DOS,KenyaEMR,Active,On Premises,Not Found,Not Found,7/13/2025 5:15,
329,Biretwa health centre,14256,Elgeyo Marakwet,Keiyo South,Ministry of Health,AMPATH Uzima,DOS,KenyaEMR,Active,On Premises,0.53801,35.55826,7/13/2025 5:15,
1799,Bishop Kioko Catholic Hospital,11955,Machakos,Machakos,Kenya Episcopal Conference-Catholic Secretariat,CHAK CHAP STAWISHA,CDC,KenyaEMR,Active,On Premises,-1.52639,37.26279,7/13/2025 5:15,
416,Bismillahi Medical Clinic (Garissa),19167,Garissa,Garissa,Private Practice - Nurse / Midwife,No Partner,No Agency,,,On Premises,-0.44958,39.64025,7/13/2025 5:15,
642,Bissil Health Centre,14259,Kajiado,Kajiado Central,Ministry of Health,Fahari ya Jamii,DOS,KenyaEMR,Active,On Premises,Not Found,Not Found,7/13/2025 5:15,
228,Bisunu Dispensary,23587,Bungoma,Sirisia,Ministry of Health,No Partner,No Agency,,,On Premises,Not Found,Not Found,7/13/2025 5:15,
1212,Bitare Dispensary,13502,Kisii,Bonchari,Ministry of Health,LVCT Vukisha 95,CDC,KenyaEMR,Active,On Cloud,-0.7049,34.69538,7/13/2025 5:15,
187,Bituyu Dispensary,17193,Bungoma,Kimilili,Ministry of Health,Dumisha Afya,DOS,,,On Premises,0.74392,34.69958,7/13/2025 5:15,
1611,Blueturtle,17609,Kitui,Kitui South,Private Practice - Nurse / Midwife,No Partner,No Agency,,Stalled/Inactive,On Premises,-1.42026,38.03823,7/13/2025 5:15,
2582,Bodaki Medical Clinic,18805,Nairobi,Dagoretti North,Private Practice - Nurse / Midwife,Fahari ya Jamii,DOS,KenyaEMR,Active,On Cloud,-1.27617,36.7558,7/13/2025 5:15,
1360,Bodi Health Centre,13503,Kisumu,Seme,Ministry of Health,HJF-Kisumu West,DOD,KenyaEMR,Active,On Premises,-0.16328,34.51242,7/13/2025 5:15,
1627,Bofu Dispensary,11253,Kwale,Kinango,Ministry of Health,No Partner,No Agency,,,On Premises,-3.98008,39.43351,7/13/2025 5:15,
2943,Bogwendo Health Centre(Manga),13504,Nyamira,Manga,Ministry of Health,Nuru Ya Mtoto,DOS,,Stalled/Inactive,On Premises,-0.64391,34.89357,7/13/2025 5:15,
1213,Boige Health Centre,13505,Kisii,South Mugirango,Ministry of Health,LVCT Vukisha 95,CDC,KenyaEMR,Active,On Cloud,-0.83089,34.66809,7/13/2025 5:15,
1325,Bokimai Dispensary,16974,Kisii,South Mugirango,Ministry of Health,LVCT Vukisha 95,CDC,KenyaEMR,Active,On Cloud,-0.7327,34.65188,7/13/2025 5:15,
2229,Bokole CDF Dispensary,11254,Mombasa,Changamwe,Ministry of Health,Stawisha Pwani,DOS,KenyaEMR,Active,On Premises,-4.01724,39.60873,7/13/2025 5:15,
95,Bokoli Hospital,15808,Bungoma,Webuye West,Ministry of Health,Dumisha Afya,DOS,AMRS,Active,On Premises,0.71026,34.66171,7/13/2025 5:15,
1248,Bomachoge Borabu Sub County Referral Hospital,13673,Kisii,Bomachoge Borabu,Ministry of Health,LVCT Vukisha 95,CDC,KenyaEMR,Active,On Cloud,Not Found,Not Found,7/13/2025 5:15,
1016,Bomani Dispensary,11255,Kilifi,Kilifi South,Ministry of Health,Stawisha Pwani,DOS,KenyaEMR,Active,On Premises,-3.88414,39.74945,7/13/2025 5:15,
1017,Bombi Dispensary,11256,Kilifi,Magarini,Ministry of Health,No Partner,No Agency,,Stalled/Inactive,On Premises,-3.07925,39.47874,7/13/2025 5:15,
43,Bomet Health Centre,14261,Bomet,Bomet Central,Ministry of Health,HJF-South Rift Valley,DOD,KenyaEMR,Active,On Premises,-0.78278,35.33863,7/13/2025 5:15,
2324,Bomu Hospital Bombolulu Medical Centre,33426,Mombasa,Nyali,Faith Based Organization,Mkomani Clinic society,CDC,KenyaEMR,Active,On Premises,Not Found,Not Found,7/13/2025 5:15,
2322,Bomu Medical Centre - Old Town,27408,Mombasa,Mvita,Non- Governmental Organizations,Mkomani Clinic society,CDC,KenyaEMR,Active,On Premises,Not Found,Not Found,7/13/2025 5:15,
2231,Bomu Medical Centre (Likoni),11259,Mombasa,Likoni,Private Enterprise (Institution),Mkomani Clinic society,CDC,KenyaEMR,Active,On Premises,-4.0936,39.64965,7/13/2025 5:15,
1123,Bomu Medical Centre (Mariakani),18267,Kilifi,Kaloleni,Non-Governmental Organizations,Mkomani Clinic society,CDC,KenyaEMR,Active,On Premises,-3.87523,39.48301,7/13/2025 5:15,
2230,Bomu Medical Hospital (Changamwe),11258,Mombasa,Changamwe,Non-Governmental Organizations,Mkomani Clinic society,CDC,KenyaEMR,Active,On Premises,-4.02745,39.61751,7/13/2025 5:15,
1361,Bonde Dispensary,13506,Kisumu,Nyakach,Ministry of Health,CIHEB Entrench,CDC,KenyaEMR,Active,On Cloud,-0.31432,34.88627,7/13/2025 5:15,
2675,Bondeni Dispensary (Nakuru Central),14263,Nakuru,Nakuru East,Ministry of Health,Tujenge Jamii Activity,DOS,KenyaEMR,Active,On Premises,-0.29061,36.08127,7/13/2025 5:15,
3453,Bondeni Health Centre (Trans Nzoia - Saboti),14264,Trans Nzoia,Saboti,Ministry of Health,AMPATH Uzima,DOS,KenyaEMR,Active,On Premises,Not Found,Not Found,7/13/2025 5:15,
2676,Bondeni Sub County Hospital,14265,Nakuru,Nakuru East,Ministry of Health,Tujenge Jamii Activity,DOS,KenyaEMR,Active,On Premises,Not Found,Not Found,7/13/2025 5:15,
615,Bondo Awino,21648,Homa Bay,Rachuonyo South,Other Faith Based,No Partner,No Agency,,,On Premises,Not Found,Not Found,7/13/2025 5:15,
3176,Bondo County Referral  Hospital,13507,Siaya,Bondo,Ministry of Health,CHS Shinda Tena,CDC,KenyaEMR,Active,On Cloud,Not Found,Not Found,7/13/2025 5:15,
3310,Bondo Youth Wellness Centre,31463,Siaya,Bondo,Ministry of Health,No Partner,No Agency,,,On Cloud,Not Found,Not Found,7/13/2025 5:15,
1499,Bongu Konyango Dispensary,22192,Kisumu,Seme,Ministry of Health,HJF-Kisumu West,DOD,KenyaEMR,Active,On Premises,Not Found,Not Found,7/13/2025 5:15,
915,Boore Clinic,10074,Kiambu,Thika Town,Private Practice - Nurse / Midwife,No Partner,No Agency,,,On Premises,-1.02794,37.0685,7/13/2025 5:15,
424,Bora Bora Clinic,13509,Homa Bay,Ndhiwa,Private Enterprise (Institution),LVCT Vukisha 95,CDC,KenyaEMR,Active,On Cloud,-0.73072,34.36853,7/13/2025 5:15,
2232,Borabu Medical Clinic,11260,Mombasa,Kisauni,Private Enterprise (Institution),No Partner,No Agency,,,On Premises,-3.96966,39.73333,7/13/2025 5:15,
1214,Borangi Health Centre,13511,Kisii,Bobasi,Ministry of Health,LVCT Vukisha 95,CDC,KenyaEMR,Active,On Cloud,-0.86912,34.84983,7/13/2025 5:15,
3177,Boro Dispensary,13513,Siaya,Alego Usonga,Ministry of Health,Siaya CHMT,CDC,KenyaEMR,Active,On Premises,0.08843,34.23423,7/13/2025 5:15,
2944,Bosiango Health Centre,13514,Nyamira,Nyamira,Ministry of Health,Nuru Ya Mtoto,DOS,KenyaEMR,Active,On Premises,-0.63996,34.95055,7/13/2025 5:15,
1215,Bosongo Hospital,13515,Kisii,Kitutu Chache South,Private Enterprise (Institution),LVCT Vukisha 95,CDC,KenyaEMR,Active,On Cloud,-0.66426,34.75456,7/13/2025 5:15,
3640,Boyani Dispensary,15809,Vihiga,Hamisi,Other Faith Based,Nuru Ya Mtoto,DOS,,Stalled/Inactive,On Premises,-0.01333,34.73471,7/13/2025 5:15,
2592,Bridging Outpatient,19405,Nairobi,Roysambu,Private Enterprise (Institution),Fahari ya Jamii,DOS,KenyaEMR,Active,On Cloud,Not Found,Not Found,7/13/2025 5:15,
2389,Brother Andre Medial Centre,12887,Nairobi,Embakasi North,Kenya Episcopal Conference-Catholic Secretariat,Fahari ya Jamii,DOS,KenyaEMR,Active,On Premises,Not Found,Not Found,7/13/2025 5:15,
302,Buburi Community Health Clinic,18120,Busia,Samia,Non-Governmental Organizations,No Partner,No Agency,,,On Premises,Not Found,Not Found,7/13/2025 5:15,
707,Buchangu Dispensary,15810,Kakamega,Navakholo,Ministry of Health,Nuru Ya Mtoto,DOS,,Stalled/Inactive,On Premises,0.44564,34.67083,7/13/2025 5:15,
241,Budalangi Dispensary,15811,Busia,Bunyala,Ministry of Health,Dumisha Afya,DOS,KenyaEMR,Active,On Premises,0.13036,34.02777,7/13/2025 5:15,
708,Budonga Dispensary,15812,Kakamega,Navakholo,Ministry of Health,Nuru Ya Mtoto,DOS,,Stalled/Inactive,On Premises,0.39812,34.610223,7/13/2025 5:15,
242,Buduta Dispensary,15813,Busia,Samia,Ministry of Health,Dumisha Afya,DOS,KenyaEMR,Active,On Premises,0.22236,34.10953,7/13/2025 5:15,
3641,Bugamangi Dispensary,15814,Vihiga,Vihiga,Ministry of Health,Nuru Ya Mtoto,DOS,KenyaEMR,Active,On Premises,0.06011,34.71465,7/13/2025 5:15,
3312,Bughuta Health Centre,11262,Taita Taveta,Voi,Ministry of Health,Stawisha Pwani,DOS,KenyaEMR,Active,On Premises,-3.68821,38.66798,7/13/2025 5:15,
3642,Bugina Health Centre,15815,Vihiga,Sabatia,Ministry of Health,Nuru Ya Mtoto,DOS,KenyaEMR,Active,On Premises,0.149,34.76777,7/13/2025 5:15,
2098,Bugumbe Health Centre,13517,Migori,Kuria West,Ministry of Health,MIGORI COUNTY HEALTH MANAGEMENT TEAM,CDC,KenyaEMR,Active,On Premises,-1.17283,34.43824,7/13/2025 5:15,
243,Bujumba Dispensary,15816,Busia,Butula,Other Faith Based,Dumisha Afya,DOS,,,On Premises,0.32244,34.21409,7/13/2025 5:15,
295,Bukalama Dispensary,17156,Busia,Matayos,Ministry of Health,Dumisha Afya,DOS,,Stalled/Inactive,On Premises,0.45067,34.18741,7/13/2025 5:15,
709,Bukaya Health Centre,15817,Kakamega,Mumias West,Ministry of Health,Nuru Ya Mtoto,DOS,KenyaEMR,Active,On Premises,0.26004,34.44942,7/13/2025 5:15,
96,Bukembe Dispensary,15819,Bungoma,Kanduyi,Ministry of Health,Dumisha Afya,DOS,KenyaEMR,Active,On Premises,0.611939,34.658292,7/13/2025 5:15,
297,Bukhalalire Dispensary,17158,Busia,Butula,Ministry of Health,Dumisha Afya,DOS,KenyaEMR,Active,On Premises,0.31826,34.27498,7/13/2025 5:15,
222,Bukokholo Dispensary,22500,Bungoma,Sirisia,Ministry of Health,No Partner,No Agency,,,On Premises,Not Found,Not Found,7/13/2025 5:15,
710,Bukura Health Centre,15820,Kakamega,Lurambi,Ministry of Health,Nuru Ya Mtoto,DOS,KenyaEMR,Active,On Premises,0.21919,34.62051,7/13/2025 5:15,
97,Bulondo Dispensary,15821,Bungoma,Kanduyi,Ministry of Health,Dumisha Afya,DOS,KenyaEMR,Active,On Premises,0.49746,34.4841,7/13/2025 5:15,
244,Bulwani Dispensary,15822,Busia,Bunyala,Ministry of Health,No Partner,No Agency,,,On Premises,0.00877,34.01344,7/13/2025 5:15,
245,Bumala A Health Centre,15823,Busia,Butula,Ministry of Health,Dumisha Afya,DOS,AMRS,Active,On Premises,0.30231,34.1914,7/13/2025 5:15,
246,Bumala B Health Centre,15824,Busia,Butula,Ministry of Health,Dumisha Afya,DOS,AMRS,Active,On Premises,0.38995,34.3501,7/13/2025 5:15,
98,Bumula Sub County Hospital,15825,Bungoma,Bumula,Ministry of Health,Dumisha Afya,DOS,KenyaEMR,Active,On Premises,Not Found,Not Found,7/13/2025 5:15,
247,Bumutiru Dispensary,15826,Busia,Butula,Ministry of Health,Dumisha Afya,DOS,KenyaEMR,Active,On Premises,0.37592,34.25369,7/13/2025 5:15,
3694,Buna Sub-District Hospital,13312,Wajir,Wajir North,Ministry of Health,No Partner,No Agency,,,On Premises,2.79142,39.49683,7/13/2025 5:15,
1362,Bunde Health Centre,13518,Kisumu,Nyando,Ministry of Health,CIHEB Entrench,CDC,KenyaEMR,Active,On Cloud,Not Found,Not Found,7/13/2025 5:15,
711,Bungasi Health Centre,15827,Kakamega,Mumias West,Ministry of Health,Nuru Ya Mtoto,DOS,KenyaEMR,Active,On Premises,0.19947,34.39919,7/13/2025 5:15,
99,Bungoma County Referral Hospital,15828,Bungoma,Kanduyi,Ministry of Health,Dumisha Afya,DOS,KenyaEMR,Active,On Premises,Not Found,Not Found,7/13/2025 5:15,
203,Bungoma West Medical Services,20323,Bungoma,Kanduyi,Private Practice - General Practitioner,No Partner,No Agency,,,On Premises,0.57584,34.5578,7/13/2025 5:15,
3383,Bura  Sub county Hospital,11264,Tana River,Bura,Ministry of Health,No Partner,No Agency,,Stalled/Inactive,On Premises,Not Found,Not Found,7/13/2025 5:15,
403,Bura District Hospital,13339,Garissa,Fafi,Ministry of Health,No Partner,No Agency,,,On Premises,-1.00918,40.3366,7/13/2025 5:15,
3373,Bura Health Centre,18312,Taita Taveta,Mwatate,Ministry of Health,Stawisha Pwani,DOS,KenyaEMR,Active,On Premises,-1.18281,39.83883,7/13/2025 5:15,
3313,Bura Mission Clinic,11265,Taita Taveta,Mwatate,Other Faith Based,Mkomani Clinic society,CDC,KenyaEMR,Active,On Premises,-3.45336,38.31328,7/13/2025 5:15,
3695,Burder Health Centre,13313,Wajir,Wajir South,Ministry of Health,No Partner,No Agency,,Stalled/Inactive,On Premises,1.11326,40.27095,7/13/2025 5:15,
248,Burinda Dispensary,15830,Busia,Butula,Ministry of Health,Dumisha Afya,DOS,,Stalled/Inactive,On Premises,0.3,34.22,7/13/2025 5:15,
3629,Burnt Forest Sub County Hospital,16347,Uasin Gishu,Ainabkoi,Ministry of Health,AMPATH Uzima,DOS,AMRS,Active,On Premises,Not Found,Not Found,7/13/2025 5:15,
316,Burumba Dispensary,21041,Busia,Matayos,Ministry of Health,Dumisha Afya,DOS,KenyaEMR,Active,On Premises,0.44783,34.11532,7/13/2025 5:15,
314,Busagwa Dispensary,21037,Busia,Bunyala,Ministry of Health,Dumisha Afya,DOS,,,On Premises,0.10781,34.05794,7/13/2025 5:15,
249,Busembe Dispensary,15831,Busia,Samia,Ministry of Health,Dumisha Afya,DOS,KenyaEMR,Active,On Premises,0.18495,34.01644,7/13/2025 5:15,
712,Bushiangala Health Centre,15832,Kakamega,Ikolomani,Other Faith Based,Nuru Ya Mtoto,DOS,,,On Premises,0.1872,34.68388,7/13/2025 5:15,
713,Bushiri Health Centre,15833,Kakamega,Navakholo,Ministry of Health,Nuru Ya Mtoto,DOS,KenyaEMR,Active,On Premises,0.36613,34.7292,7/13/2025 5:15,
250,Busia County Referral Hospital,15834,Busia,Matayos,Ministry of Health,Dumisha Afya,DOS,AMRS,Active,On Premises,Not Found,Not Found,7/13/2025 5:15,
303,Busia Trailer Park Clinic,18126,Busia,Matayos,Ministry of Health,Dumisha Afya,DOS,,,On Premises,0.46404,34.10008,7/13/2025 5:15,
251,Busibwabo Dispensary,15835,Busia,Matayos,Ministry of Health,Dumisha Afya,DOS,KenyaEMR,Active,On Premises,0.41086,34.20122,7/13/2025 5:15,
3696,Bute District Hospital,13314,Wajir,Wajir North,Ministry of Health,No Partner,No Agency,,Stalled/Inactive,On Premises,3.37063,39.42488,7/13/2025 5:15,
848,Butere Iranda Health Centre,18939,Kakamega,Butere,Ministry of Health,Nuru Ya Mtoto,DOS,KenyaEMR,Active,On Premises,0.2442,34.46411,7/13/2025 5:15,
714,Butere Sub County Hospital,15836,Kakamega,Butere,Ministry of Health,Nuru Ya Mtoto,DOS,KenyaEMR,Active,On Premises,Not Found,Not Found,7/13/2025 5:15,
855,Butingo Dispensary,20043,Kakamega,Navakholo,Ministry of Health,Nuru Ya Mtoto,DOS,,Stalled/Inactive,On Premises,0.35586,34.63533,7/13/2025 5:15,
252,Butula Mission Health Centre,15838,Busia,Butula,Other Faith Based,Dumisha Afya,DOS,KenyaEMR,Active,On Premises,0.34325,34.33363,7/13/2025 5:15,
3643,Buyangu Health Centre,15839,Vihiga,Hamisi,Other Faith Based,No Partner,No Agency,,,On Premises,0.03923,34.74595,7/13/2025 5:15,
1018,Bwagamoyo Dispensary,11266,Kilifi,Rabai,Ministry of Health,Stawisha Pwani,DOS,KenyaEMR,Active,On Premises,-3.9402,39.64462,7/13/2025 5:15,
253,Bwaliro Dispensary,15840,Busia,Butula,Ministry of Health,Dumisha Afya,DOS,KenyaEMR,Active,On Premises,0.37825,34.3162,7/13/2025 5:15,
2099,Bware Health Center,13519,Migori,Uriri,Ministry of Health,CIHEB Entrench,CDC,KenyaEMR,Active,On Premises,Not Found,Not Found,7/13/2025 5:15,
3504,Bwayi Dispensary,19756,Trans Nzoia,Kwanza,Ministry of Health,AMPATH Uzima,DOS,KenyaEMR,Active,On Premises,1.07757,35.02807,7/13/2025 5:15,
1697,Bwiti (Tiomin) Dispensary,17894,Kwale,Lunga Lunga,Ministry of Health,No Partner,No Agency,,Stalled/Inactive,On Premises,Not Found,Not Found,7/13/2025 5:15,
2298,California Medical Clinic,17763,Mombasa,Likoni,Private Practice - Nurse / Midwife,No Partner,No Agency,,,On Premises,-4.06605,39.60321,7/13/2025 5:15,
2390,Cana Family Life Clinic,12889,Nairobi,Makadara,Non-Governmental Organizations,CIHEB CONNECT,CDC,KenyaEMR,Active,On Premises,-1.30907,36.88053,7/13/2025 5:15,
912,Cardinal Otunga Health Centre,10019,Kiambu,Gatundu North,Faith Based,LVCT Dhibiti,CDC,KenyaEMR,Active,On Cloud,Not Found,Not Found,7/13/2025 5:15,
2013,Catholic Hospital Laisamis,16215,Marsabit,Laisamis,Kenya Episcopal Conference-Catholic Secretariat,No Partner,No Agency,,Stalled/Inactive,On Premises,1.70101,38.0251,7/13/2025 5:15,
3155,Catholic Hospital Wamba,15769,Samburu,Samburu East,Kenya Episcopal Conference-Catholic Secretariat,Tujenge Jamii Activity,DOS,KenyaEMR,Active,On Premises,0.97786,37.32013,7/13/2025 5:15,
2233,Cdc Ganjoni Dispensary,11273,Mombasa,Mvita,Ministry of Health,Stawisha Pwani,DOS,KenyaEMR,Active,On Premises,-4.06398,39.66609,7/13/2025 5:15,
3590,Cedar Associate Clinic,14280,Uasin Gishu,Ainabkoi,Private Practice - General Practitioner,AMPATH Uzima,DOS,AMRS,Active,On Premises,0.51474,35.27871,7/13/2025 5:15,
715,Central Clinic (Likuyani),15843,Kakamega,Likuyani,Private Enterprise (Institution),Nuru Ya Mtoto,DOS,,Stalled/Inactive,On Premises,Not Found,Not Found,7/13/2025 5:15,
2323,CGTRH Mtongwe Outreach Centre,28689,Mombasa,Likoni,Ministry of Health,HJF-Nairobi,DOD,KenyaEMR,Active,On Premises,Not Found,Not Found,7/13/2025 5:15,
2320,Chaani Catholic,23285,Mombasa,Changamwe,Kenya Episcopal Conference-Catholic Secretariat,Mkomani Clinic society,CDC,KenyaEMR,Active,On Premises,Not Found,Not Found,7/13/2025 5:15,
2083,Chabuene Dispensary,17223,Meru,Imenti North,Ministry of Health,No Partner,No Agency,,Stalled/Inactive,On Premises,0.1131,37.67195,7/13/2025 5:15,
2946,Chaina Dispensary,13525,Nyamira,Nyamira North,Ministry of Health,Nuru Ya Mtoto,DOS,,,On Premises,Not Found,Not Found,7/13/2025 5:15,
1019,Chakama Dispensary,11276,Kilifi,Magarini,Ministry of Health,Stawisha Pwani,DOS,KenyaEMR,Active,On Premises,-3.122,39.63333,7/13/2025 5:15,
3314,Chala Dispensary,11278,Taita Taveta,Taveta,Ministry of Health,Stawisha Pwani,DOS,KenyaEMR,Active,On Premises,Not Found,Not Found,7/13/2025 5:15,
1118,Chalani Dispensary,16191,Kilifi,Kaloleni,Ministry of Health,No Partner,No Agency,,,On Premises,-3.75508,39.63076,7/13/2025 5:15,
44,Chamalal Dispensary,14285,Bomet,Konoin,Ministry of Health,HJF-South Rift Valley,DOD,,Stalled/Inactive,On Premises,-0.52237,35.2081,7/13/2025 5:15,
1105,Chamalo Medical Clinic,11845,Kilifi,Ganze,Private Practice - Nurse / Midwife,No Partner,No Agency,,Stalled/Inactive,On Premises,Not Found,Not Found,7/13/2025 5:15,
3078,Chamuka (CDF) Dispensary,18782,Nyandarua,Oljororok,Ministry of Health,Jamii Tekelezi,DOS,KenyaEMR,Active,On Premises,-0.07599,36.36284,7/13/2025 5:15,
2391,Chandaria Health Centre,12893,Nairobi,Dagoretti South,Community,CIHEB CONNECT,CDC,KenyaEMR,Active,On Premises,-1.27396,36.69119,7/13/2025 5:15,
289,Changara (GOK) Dispensary,16421,Busia,Teso North,Ministry of Health,Dumisha Afya,DOS,AMRS,Active,On Premises,0.73757,34.42136,7/13/2025 5:15,
1716,Charity Medical Centre,10089,Laikipia,Laikipia West,Private Enterprise (Institution),No Partner,No Agency,,,On Premises,0.03023,36.35774,7/13/2025 5:15,
1020,Chasimba Health Centre,11282,Kilifi,Kilifi South,Ministry of Health,Stawisha Pwani,DOS,KenyaEMR,Active,On Premises,-3.73513,39.70028,7/13/2025 5:15,
45,Chebangang Health Centre,14289,Bomet,Konoin,Ministry of Health,HJF-South Rift Valley,DOD,KenyaEMR,Active,On Premises,-0.54881,35.28923,7/13/2025 5:15,
330,Chebiemit District Hospital,14294,Elgeyo Marakwet,Marakwet West,Ministry of Health,AMPATH Uzima,DOS,KenyaEMR,Active,On Premises,0.85334,35.50237,7/13/2025 5:15,
46,Chebilat Dispensary,14295,Bomet,Sotik,Ministry of Health,HJF-South Rift Valley,DOD,,Stalled/Inactive,On Premises,-0.68974,35.0766,7/13/2025 5:15,
2871,Chebilat Dispensary (Nandi South),17131,Nandi,Aldai,Ministry of Health,HJF-South Rift Valley,DOD,KenyaEMR,Active,On Premises,0.05341,34.95704,7/13/2025 5:15,
47,Chebitet Dispensary,14298,Bomet,Konoin,Company Medical Service,HJF-South Rift Valley,DOD,,,On Premises,-0.480732,35.273706,7/13/2025 5:15,
199,Chebon Medical Clinic,19155,Bungoma,Mt Elgon,Private Practice - Nurse / Midwife,No Partner,No Agency,,,On Premises,0.84112,34.71382,7/13/2025 5:15,
868,Cheborgei Health Centre,14300,Kericho,Bureti,Ministry of Health,HJF-South Rift Valley,DOD,KenyaEMR,Active,On Premises,-0.57824,35.14351,7/13/2025 5:15,
331,Chebororwa Health Centre,14301,Elgeyo Marakwet,Marakwet West,Ministry of Health,AMPATH Uzima,DOS,KenyaEMR,Active,On Premises,0.94421,35.39224,7/13/2025 5:15,
48,Cheboyo Dispensary,14302,Bomet,Chepalungu,Ministry of Health,HJF-South Rift Valley,DOD,KenyaEMR,Active,On Premises,-0.93847,35.13898,7/13/2025 5:15,
101,Chebukaka Health Centre,15848,Bungoma,Kabuchai,Other Faith Based,Dumisha Afya,DOS,,Stalled/Inactive,On Premises,Not Found,Not Found,7/13/2025 5:15,
219,Chebukutumi Dispensary,22003,Bungoma,Sirisia,Ministry of Health,No Partner,No Agency,,,On Premises,Not Found,Not Found,7/13/2025 5:15,
201,Chebukwabi Dispensary,20159,Bungoma,Kimilili,Ministry of Health,No Partner,No Agency,,,On Premises,0.79613,34.66577,7/13/2025 5:15,
49,Chebunyo Dispensary,14304,Bomet,Chepalungu,Ministry of Health,HJF-South Rift Valley,DOD,KenyaEMR,Active,On Premises,-0.96389,35.19167,7/13/2025 5:15,
716,Chebwai Mission Dispensary,15849,Kakamega,Malava,Other Faith Based,Nuru Ya Mtoto,DOS,KenyaEMR,Active,On Premises,0.49933,34.83212,7/13/2025 5:15,
3407,Cheera Health Center,11968,Tharaka-Nithi,Chuka,Kenya Episcopal Conference-Catholic Secretariat,No Partner,No Agency,,Stalled/Inactive,On Premises,Not Found,Not Found,7/13/2025 5:15,
332,Chegilet Health Centre,14306,Elgeyo Marakwet,Keiyo North,Ministry of Health,AMPATH Uzima,DOS,,,On Premises,Not Found,Not Found,7/13/2025 5:15,
717,Chegulo Dispensary,15850,Kakamega,Malava,Ministry of Health,Nuru Ya Mtoto,DOS,,Stalled/Inactive,On Premises,0.493803,34.788307,7/13/2025 5:15,
718,Chekalini Health Centre,15851,Kakamega,Lugari,Ministry of Health,Nuru Ya Mtoto,DOS,KenyaEMR,Active,On Premises,Not Found,Not Found,7/13/2025 5:15,
50,Chemaner  Health Centre (Bomet),14311,Bomet,Bomet East,Ministry of Health,HJF-South Rift Valley,DOD,KenyaEMR,Active,On Premises,Not Found,Not Found,7/13/2025 5:15,
869,Chemase Dispensary,14314,Kericho,Belgut,Private Enterprise (Institution),HJF-South Rift Valley,DOD,,,On Premises,-0.41526,35.30371,7/13/2025 5:15,
2833,Chemase Health Centre,14315,Nandi,Tinderet,Ministry of Health,HJF-South Rift Valley,DOD,KenyaEMR,Active,On Premises,-0.01376,35.06395,7/13/2025 5:15,
1363,Chemelil GOK Dispensary,13521,Kisumu,Muhoroni,Ministry of Health,CIHEB Entrench,CDC,KenyaEMR,Active,On Cloud,-0.10732,35.10848,7/13/2025 5:15,
1364,Chemelil Sugar Health Centre,13522,Kisumu,Muhoroni,Company Medical Service,CIHEB Entrench,CDC,KenyaEMR,Active,On Premises,-0.15153,35.18239,7/13/2025 5:15,
3,Chemolingot District Hospital,14321,Baringo,East Pokot,Ministry of Health,Tujenge Jamii Activity,DOS,KenyaEMR,Active,On Premises,0.98724,35.9877,7/13/2025 5:15,
870,Chemosot Health Centre,14323,Kericho,Bureti,Ministry of Health,HJF-South Rift Valley,DOD,KenyaEMR,Active,On Premises,-0.50979,35.17105,7/13/2025 5:15,
2834,Chemundu Dispensary (Nandi Central),14324,Nandi,Chesumei,Ministry of Health,HJF-South Rift Valley,DOD,KenyaEMR,Active,On Premises,0.23963,35.09212,7/13/2025 5:15,
2835,Chemuswo Dispensary,14326,Nandi,Chesumei,Ministry of Health,HJF-South Rift Valley,DOD,KenyaEMR,Active,On Premises,0.34377,35.1173,7/13/2025 5:15,
195,Chemwa Bridge Dispensary,18563,Bungoma,Kabuchai,Ministry of Health,Dumisha Afya,DOS,KenyaEMR,Active,On Premises,0.60997,34.57533,7/13/2025 5:15,
197,Chemworemwo Dispensary,18583,Bungoma,Mt Elgon,Ministry of Health,No Partner,No Agency,,,On Premises,0.86858,34.73034,7/13/2025 5:15,
333,Chemworor Health Centre,14327,Elgeyo Marakwet,Marakwet East,Ministry of Health,AMPATH Uzima,DOS,,,On Premises,1.07424,35.57328,7/13/2025 5:15,
3703,Chepareria Sub District Hospital,14330,West Pokot,Pokot South,Ministry of Health,AMPATH Uzima,DOS,KenyaEMR,Active,On Premises,1.30047,35.19926,7/13/2025 5:15,
51,Chepchabas Dispensary,14331,Bomet,Konoin,Ministry of Health,HJF-South Rift Valley,DOD,KenyaEMR,Active,On Premises,-0.52295,35.2604,7/13/2025 5:15,
3454,Chepchoina Dispensary,14332,Trans Nzoia,Endebess,Ministry of Health,AMPATH Uzima,DOS,KenyaEMR,Active,On Premises,1.20285,34.81041,7/13/2025 5:15,
3591,Chepkanga Health Centre,14335,Uasin Gishu,Moiben,Ministry of Health,AMPATH Uzima,DOS,AMRS,Active,On Premises,0.8838,35.38779,7/13/2025 5:15,
3592,Chepkemel Dispensary,14337,Uasin Gishu,Turbo,Ministry of Health,No Partner,No Agency,,,On Premises,0.591733,34.9757,7/13/2025 5:15,
2836,Chepkemel Health Centre (Mosop),14339,Nandi,Mosop,Ministry of Health,HJF-South Rift Valley,DOD,KenyaEMR,Active,On Premises,0.52831,35.03248,7/13/2025 5:15,
3593,Chepkigen Dispensary,14341,Uasin Gishu,Kesses,Ministry of Health,AMPATH Uzima,DOS,AMRS,Active,On Premises,0.39066,35.3297,7/13/2025 5:15,
334,Chepkorio Health Centre,14346,Elgeyo Marakwet,Keiyo South,Ministry of Health,AMPATH Uzima,DOS,KenyaEMR,Active,On Premises,0.38539,35.53656,7/13/2025 5:15,
102,Chepkube Dispensary,15854,Bungoma,Cheptais,Ministry of Health,Dumisha Afya,DOS,,Stalled/Inactive,On Premises,0.84009,34.43328,7/13/2025 5:15,
2837,Chepkumia Dispensary,14348,Nandi,Emgwen,Ministry of Health,HJF-South Rift Valley,DOD,KenyaEMR,Active,On Premises,0.11004,34.96157,7/13/2025 5:15,
2838,Chepkunyuk Dispensary,14351,Nandi,Nandi Hills,Ministry of Health,HJF-South Rift Valley,DOD,KenyaEMR,Active,On Premises,0.12376,35.238,7/13/2025 5:15,
2872,cheplengu dispensary,17629,Nandi,Chesumei,Ministry of Health,HJF-South Rift Valley,DOD,KenyaEMR,Active,On Premises,0.21476,35.08712,7/13/2025 5:15,
2945,Chepngombe Health Centre,13523,Nyamira,Borabu,Ministry of Health,Nuru Ya Mtoto,DOS,KenyaEMR,Active,On Premises,-0.83926,35.00363,7/13/2025 5:15,
3594,Chepsaita Dispensary,14358,Uasin Gishu,Turbo,Ministry of Health,AMPATH Uzima,DOS,AMRS,Active,On Premises,0.57165,34.8947,7/13/2025 5:15,
871,Chepsir Dispensary,14362,Kericho,Kipkelion East,Ministry of Health,HJF-South Rift Valley,DOD,KenyaEMR,Active,On Premises,-0.28354,35.4259,7/13/2025 5:15,
3455,Chepsiro Health Centre,14363,Trans Nzoia,Cherangany,Ministry of Health,AMPATH Uzima,DOS,KenyaEMR,Active,On Premises,Not Found,Not Found,7/13/2025 5:15,
52,Cheptabes Dispensary,14365,Bomet,Konoin,Private Enterprise (Institution),HJF-South Rift Valley,DOD,,,On Premises,-0.60177,35.3607,7/13/2025 5:15,
103,Cheptais Sub County Hospital,15855,Bungoma,Cheptais,Ministry of Health,Dumisha Afya,DOS,KenyaEMR,Active,On Premises,Not Found,Not Found,7/13/2025 5:15,
53,Cheptalal Sub-County Hospital,14366,Bomet,Konoin,Ministry of Health,HJF-South Rift Valley,DOD,KenyaEMR,Active,On Premises,Not Found,Not Found,7/13/2025 5:15,
2839,Chepterwai Sub-District Hospital,14369,Nandi,Mosop,Ministry of Health,HJF-South Rift Valley,DOD,KenyaEMR,Active,On Premises,0.52288,34.92726,7/13/2025 5:15,
2870,Cheptingwich Dispensary,17024,Nandi,Aldai,Ministry of Health,HJF-South Rift Valley,DOD,KenyaEMR,Active,On Premises,0.09873,34.87329,7/13/2025 5:15,
335,Cheptongei Health Centre,14373,Elgeyo Marakwet,Marakwet West,Ministry of Health,AMPATH Uzima,DOS,KenyaEMR,Active,On Premises,Not Found,Not Found,7/13/2025 5:15,
3595,Cheramei Dispensary,14377,Uasin Gishu,Turbo,Ministry of Health,AMPATH Uzima,DOS,AMRS,Active,On Premises,0.60768,35.14578,7/13/2025 5:15,
3457,Cherangany Nursing Home,14380,Trans Nzoia,Saboti,Private Enterprise (Institution),AMPATH Uzima,DOS,AMRS,Active,On Premises,0.99026,35.00599,7/13/2025 5:15,
3456,Cherangany Sub County Hospital,14379,Trans Nzoia,Cherangany,Ministry of Health,AMPATH Uzima,DOS,KenyaEMR,Active,On Premises,Not Found,Not Found,7/13/2025 5:15,
104,Chesikaki Dispensary,15856,Bungoma,Cheptais,Ministry of Health,Dumisha Afya,DOS,KenyaEMR,Active,On Premises,0.79371,34.51192,7/13/2025 5:15,
196,Chesinende Dispensary,18582,Bungoma,Mt Elgon,Ministry of Health,No Partner,No Agency,,,On Premises,0.90214,34.78021,7/13/2025 5:15,
54,Chesoen Dispensary,14384,Bomet,Bomet Central,Ministry of Health,HJF-South Rift Valley,DOD,,,On Premises,-0.69778,35.29588,7/13/2025 5:15,
336,Chesoi Health Centre,14385,Elgeyo Marakwet,Marakwet East,Kenya Episcopal Conference-Catholic Secretariat,AMPATH Uzima,DOS,AMRS,Active,On Premises,1.07013,35.59397,7/13/2025 5:15,
337,Chesongoch Health Centre,14386,Elgeyo Marakwet,Marakwet East,Kenya Episcopal Conference-Catholic Secretariat,AMPATH Uzima,DOS,AMRS,Active,On Premises,1.12623,35.64294,7/13/2025 5:15,
719,Chevoso Dispensary,15857,Kakamega,Malava,Ministry of Health,Nuru Ya Mtoto,DOS,KenyaEMR,Active,On Premises,0.36948,34.81167,7/13/2025 5:15,
3384,Chewani Dispensary,11283,Tana River,Galole,Ministry of Health,No Partner,No Agency,,,On Premises,-1.43728,40.02169,7/13/2025 5:15,
3385,Chewele Dispensary,11284,Tana River,Bura,Ministry of Health,No Partner,No Agency,,Stalled/Inactive,On Premises,-1.158,39.95162,7/13/2025 5:15,
3408,Chiakariga Health Centre,11969,Tharaka-Nithi,Tharaka South,Ministry of Health,DREAM Kenya Trust,German cooperation and Community of SantEgidio,KenyaEMR,Active,On Premises,-0.2801,37.92109,7/13/2025 5:15,
3303,Chianda Dispensary (Rarieda),18564,Siaya,Rarieda,Ministry of Health,CHS Shinda Tena,CDC,KenyaEMR,Active,On Cloud,-0.25589,34.35278,7/13/2025 5:15,
817,Chief Milimu Dispensary,16144,Kakamega,Shinyalu,Private Enterprise (Institution),Nuru Ya Mtoto,DOS,KenyaEMR,Active,On Premises,Not Found,Not Found,7/13/2025 5:15,
1365,Chiga Dispensary,13524,Kisumu,Kisumu East,Local Authority,Nuru Ya Mtoto,DOS,KenyaEMR,Active,On Premises,-0.09345,34.83829,7/13/2025 5:15,
998,Child & Family Wellness Clinic,19985,Kiambu,Kiambu Town,Other Faith Based,No Partner,No Agency,,,On Premises,-1.17535,36.8304,7/13/2025 5:15,
2596,Child Doctor Medical Clinic,19504,Nairobi,Kibra,Private Enterprise (Institution),CIHEB CONNECT,CDC,KenyaEMR,Active,On Premises,Not Found,Not Found,7/13/2025 5:15,
720,Chimoi Dispensary,15858,Kakamega,Malava,Kenya Episcopal Conference-Catholic Secretariat,Nuru Ya Mtoto,DOS,KenyaEMR,Active,On Premises,Not Found,Not Found,7/13/2025 5:15,
2100,Chinato Health Centre,13526,Migori,Kuria East,Ministry of Health,MIGORI COUNTY HEALTH MANAGEMENT TEAM,CDC,KenyaEMR,Active,On Premises,-1.28787,34.61433,7/13/2025 5:15,
3409,Chogoria (PCEA) Hospital,11970,Tharaka-Nithi,Mwimbi,Christian Health Association of Kenya,CHAK CHAP STAWISHA,CDC,KenyaEMR,Active,On Premises,-0.23033,37.62818,7/13/2025 5:15,
721,Chombeli Health Centre,15859,Kakamega,Malava,Ministry of Health,Nuru Ya Mtoto,DOS,KenyaEMR,Active,On Premises,0.45621,34.75151,7/13/2025 5:15,
1216,Christamarianne  Hospital,13527,Kisii,Nyaribari Chache,Kenya Episcopal Conference-Catholic Secretariat,Kenya Conference of Catholic Bishops-  ACTS,CDC,KenyaEMR,Active,On Premises,Not Found,Not Found,7/13/2025 5:15,
1139,Christian Community Services Wanguru Dispensary,10093,Kirinyaga,Kirinyaga South,Christian Health Association of Kenya,No Partner,No Agency,,,On Premises,Not Found,Not Found,7/13/2025 5:15,
1888,CHS Mlolongo Dice,25229,Machakos,Athi River,Non Governmental organisation,CIHEB PACT IMARA,CDC,KenyaEMR,Active,On Cloud,Not Found,Not Found,7/13/2025 5:15,
2020,Chugu Dispensary,11971,Meru,Imenti North,Ministry of Health,Jamii Tekelezi,DOS,KenyaEMR,Active,On Premises,0.06882,37.67907,7/13/2025 5:15,
3410,Chuka Cottage Hospital,11972,Tharaka-Nithi,Chuka,Kenya Episcopal Conference-Catholic Secretariat,No Partner,No Agency,,Stalled/Inactive,On Premises,-0.33657,37.64737,7/13/2025 5:15,
3450,Chuka Dice,19882,Tharaka-Nithi,Meru South,Non-Governmental Organizations,LVCT Dhibiti,CDC,KenyaEMR,Active,On Premises,Not Found,Not Found,7/13/2025 5:15,
3411,Chuka District Hospital,11973,Tharaka-Nithi,Chuka,Ministry of Health,Jamii Tekelezi,DOS,KenyaEMR,Active,On Premises,-0.32954,37.65537,7/13/2025 5:15,
1366,Chulaimbo County Hospital,13528,Kisumu,Kisumu West,Ministry of Health,Nuru Ya Mtoto,DOS,KenyaEMR,Active,On Premises,Not Found,Not Found,7/13/2025 5:15,
1504,Chuluni Health Centre,11974,Kitui,Kitui East,Ministry of Health,CIHEB PACT IMARA,CDC,KenyaEMR,Active,On Premises,Not Found,Not Found,7/13/2025 5:15,
1723,Chumvi Dispensary,14391,Laikipia,Laikipia North,Ministry of Health,Tujenge Jamii Activity,DOS,KenyaEMR,Active,On Premises,0.16869,37.2475,7/13/2025 5:15,
425,Chuowe Dispensary,13529,Homa Bay,Rachuonyo North,Ministry of Health,LVCT Vukisha 95,CDC,KenyaEMR,Active,On Cloud,-0.32141,34.77078,7/13/2025 5:15,
426,Chuthber Dispensary,13530,Homa Bay,Rachuonyo North,Ministry of Health,LVCT Vukisha 95,CDC,KenyaEMR,Active,On Cloud,-0.39885,34.72371,7/13/2025 5:15,
106,Chwele Friends Dispensary,15861,Bungoma,Sirisia,Christian Health Association of Kenya,Kenya Conference of Catholic Bishops-  ACTS,CDC,KenyaEMR,Active,On Premises,0.76134,34.54924,7/13/2025 5:15,
105,Chwele Sub County Hospital,15860,Bungoma,Kabuchai,Ministry of Health,Dumisha Afya,DOS,KenyaEMR,Active,On Premises,Not Found,Not Found,7/13/2025 5:15,
1140,Ciagini  Health Centre,10096,Kirinyaga,Kirinyaga North/Mwea West,Ministry of Health,No Partner,No Agency,,Stalled/Inactive,On Premises,-0.75627,37.37958,7/13/2025 5:15,
916,Cianda Dispensary,10097,Kiambu,Kiambaa,Ministry of Health,LVCT Dhibiti,CDC,KenyaEMR,Active,On Cloud,-1.13066,36.7646,7/13/2025 5:15,
2392,Clinitec Medical Services,12898,Nairobi,Kibra,Company Medical Service,No Partner,No Agency,,Stalled/Inactive,On Premises,-1.295947,36.803218,7/13/2025 5:15,
2545,Clinix Health Care (Sarangombe,17388,Nairobi,Langata,Private Practice - Unspecified,No Partner,No Agency,,Stalled/Inactive,On Premises,Not Found,Not Found,7/13/2025 5:15,
2878,Cmf Aitong Health Centre,14394,Narok,Narok West,Other Faith Based,CHAK CHAP STAWISHA,CDC,KenyaEMR,Active,On Premises,-1.13315,35.25075,7/13/2025 5:15,
2235,Coast General Teaching and Referral Hospital,11289,Mombasa,Mvita,Ministry of Health,Stawisha Pwani,DOS,KenyaEMR,Active,On Premises,Not Found,Not Found,7/13/2025 5:15,
2234,Coast General Teaching and Referral Hospital (Chaani Outreach Centre),11274,Mombasa,Changamwe,Ministry of Health,Stawisha Pwani,DOS,KenyaEMR,Active,On Premises,Not Found,Not Found,7/13/2025 5:15,
2321,Coast General Teaching and Referral Hospital Vikwatani Outreach Centre,25221,Mombasa,Kisauni,Ministry of Health,Stawisha Pwani,DOS,KenyaEMR,Active,On Premises,Not Found,Not Found,7/13/2025 5:15,
2581,Comboni Missionary Sisters Health Programm,18745,Nairobi,Embakasi North,Kenya Episcopal Conference-Catholic Secretariat,Coptic Orthodox Church,CDC,KenyaEMR,Active,On Premises,-1.25854,36.87917,7/13/2025 5:15,
2028,Consolata Hospital Gitoro,12044,Meru,Imenti North,Kenya Episcopal Conference-Catholic Secretariat,Jamii Tekelezi,DOS,KenyaEMR,Active,On Premises,Not Found,Not Found,7/13/2025 5:15,
382,Consolata Kyeni Hospital,12413,Embu,Runyenjes,Kenya Episcopal Conference-Catholic Secretariat,CHAK CHAP STAWISHA,CDC,KenyaEMR,Active,On Premises,-0.41331,37.58781,7/13/2025 5:15,
2021,Consolata Mission  Hospital Nkubu,11976,Meru,Imenti South,Kenya Episcopal Conference-Catholic Secretariat,CHAK CHAP STAWISHA,CDC,KenyaEMR,Active,On Premises,Not Found,Not Found,7/13/2025 5:15,
3081,Consolata Mission Hospital (Mathari),10100,Nyeri,Nyeri Central,Kenya Episcopal Conference-Catholic Secretariat,CHAK CHAP STAWISHA,CDC,KenyaEMR,Active,On Premises,-0.41383,36.9197,7/13/2025 5:15,
2394,Coptic Hospital (Ngong Road),12905,Nairobi,Dagoretti North,Coptic Orthodox Church,Coptic Orthodox Church,CDC,KenyaEMR,Active,On Premises,-1.30096,36.79893,7/13/2025 5:15,
2393,Coptic Medical Clinic,12904,Nairobi,Makadara,Coptic Orthodox Church,Coptic Orthodox Church,CDC,KenyaEMR,Active,On Premises,-1.30837,36.86298,7/13/2025 5:15,
3644,Coptic Nursing Home,15862,Vihiga,Luanda,Coptic Orthodox Church,Coptic Orthodox Church,CDC,KenyaEMR,Active,On Premises,0.01081,34.60541,7/13/2025 5:15,
996,Cordis Maria Dispensary,19722,Kiambu,Ruiru,Kenya Episcopal Conference-Catholic Secretariat,No Partner,No Agency,,Stalled/Inactive,On Premises,-1.21589,36.93658,7/13/2025 5:15,
2395,Cotolengo Centre,12907,Nairobi,Langata,Kenya Episcopal Conference-Catholic Secretariat,No Partner,No Agency,,,On Premises,-1.33712,36.72622,7/13/2025 5:15,
2022,Cottolengo Mission Hospital,11977,Meru,Imenti Central,Kenya Episcopal Conference-Catholic Secretariat,DREAM Kenya Trust,German cooperation and Community of SantEgidio,KenyaEMR,Active,On Premises,-0.00245,37.76659,7/13/2025 5:15,
1022,Cowdray Dispensary,11293,Kilifi,Kilifi North,Ministry of Health,Stawisha Pwani,DOS,KenyaEMR,Active,On Premises,-3.28859,40.07671,7/13/2025 5:15,
3458,Crystal Medical Clinic,14399,Trans Nzoia,Saboti,Private Enterprise (Institution),No Partner,No Agency,,,On Premises,Not Found,Not Found,7/13/2025 5:15,
1800,D Comboni Mission,11981,Machakos,Masinga,Kenya Episcopal Conference-Catholic Secretariat,CHAK CHAP STAWISHA,CDC,KenyaEMR,Active,On Premises,-0.93544,37.33202,7/13/2025 5:15,
1991,Dabel Health Centre,11982,Marsabit,Moyale,Ministry of Health,No Partner,No Agency,,Stalled/Inactive,On Premises,Not Found,Not Found,7/13/2025 5:15,
402,Dadaab Sub-County Hospital,13316,Garissa,Dadaab,Ministry of Health,No Partner,No Agency,,,On Premises,Not Found,Not Found,7/13/2025 5:15,
3697,Dadajabula Sub District Hospital,13317,Wajir,Wajir South,Ministry of Health,No Partner,No Agency,,Stalled/Inactive,On Premises,0.53621,40.87265,7/13/2025 5:15,
1023,Dagamra Dispensary,11297,Kilifi,Magarini,Ministry of Health,No Partner,No Agency,,Stalled/Inactive,On Premises,-3.14893,39.91768,7/13/2025 5:15,
1116,Dagamra Medical Clinic,16186,Kilifi,Rabai,Private Practice - Clinical Officer,No Partner,No Agency,,Stalled/Inactive,On Premises,-3.92117,39.53951,7/13/2025 5:15,
1483,Dago Jonyo Dispensary,20377,Kisumu,Seme,Ministry of Health,HJF-Kisumu West,DOD,KenyaEMR,Active,On Premises,-0.18251,34.50411,7/13/2025 5:15,
1992,Dakabaricha Dispensary,11983,Marsabit,Saku,Ministry of Health,No Partner,No Agency,,,On Premises,2.34008,38.00329,7/13/2025 5:15,
365,Dallas Dispensary,11984,Embu,Manyatta,Ministry of Health,Jamii Tekelezi,DOS,KenyaEMR,Active,On Premises,-0.53616,37.45455,7/13/2025 5:15,
2830,Dandelion Medica Center,23952,Nakuru,Rongai,Private Practice - Private Institution Academic,No Partner,No Agency,,Stalled/Inactive,On Premises,Not Found,Not Found,7/13/2025 5:15,
2396,Dandora (EDARP) Clinic,12911,Nairobi,Embakasi West,Kenya Episcopal Conference-Catholic Secretariat,Coptic Orthodox Church,CDC,ECare,Active,On Premises,-1.25734,36.89614,7/13/2025 5:15,
2398,Dandora I Health Centre,12913,Nairobi,Embakasi North,Local Authority,SHINE-Sustainable HIV Programming in Nairobi for Epidemic Control,CDC,KenyaEMR,Active,On Cloud,-1.26013,36.88843,7/13/2025 5:15,
2397,Dandora II Health Centre,12912,Nairobi,Embakasi North,Local Authority,Fahari ya Jamii,DOS,KenyaEMR,Active,On Premises,-1.25761,36.88775,7/13/2025 5:15,
2600,Dandora Medical and Laboratory Services (Kojwang),19617,Nairobi,Embakasi North,Private Practice - General Practitioner,No Partner,No Agency,,,On Premises,-1.24586,36.90709,7/13/2025 5:15,
1217,Daraja Medical Clinic,13531,Kisii,Kitutu Chache South,Private Enterprise (Institution),LVCT Vukisha 95,CDC,KenyaEMR,Active,On Cloud,-0.66604,34.76348,7/13/2025 5:15,
1072,David Kariuki Medical Centre,11632,Kilifi,Malindi,Private Practice - Clinical Officer,No Partner,No Agency,,Stalled/Inactive,On Premises,-3.21872,40.12152,7/13/2025 5:15,
3324,David Kayanda Dispensary,11457,Taita Taveta,Voi,Ministry of Health,No Partner,No Agency,,Stalled/Inactive,On Premises,-3.37007,38.47518,7/13/2025 5:15,
3315,Dawida Maternity Nursing Home,11299,Taita Taveta,Wundanyi,Private Enterprise (Institution),No Partner,No Agency,,,On Premises,-3.24258,38.22012,7/13/2025 5:15,
3316,Dawson Mwanyumba Dispensary,11300,Taita Taveta,Mwatate,Ministry of Health,Stawisha Pwani,DOS,KenyaEMR,Active,On Premises,-3.43376,38.37417,7/13/2025 5:15,
2101,Dede Health Centre,13532,Migori,Awendo,Ministry of Health,CIHEB Entrench,CDC,KenyaEMR,Active,On Cloud,Not Found,Not Found,7/13/2025 5:15,
3317,Dembwa Dispensary,11302,Taita Taveta,Mwatate,Ministry of Health,No Partner,No Agency,,Stalled/Inactive,On Premises,-3.44819,38.36394,7/13/2025 5:15,
1628,Diani Health Centre,11304,Kwale,Msambweni,Ministry of Health,Stawisha Pwani,DOS,KenyaEMR,Active,On Premises,-4.27434,39.5677,7/13/2025 5:15,
94,DICE ICL  BOMET,24618,Bomet,Bomet Central,Non-Governmental Organizations,HJF-South Rift Valley,DOD,KenyaEMR,Active,On Premises,Not Found,Not Found,7/13/2025 5:15,
566,DICE IRDO - Mbita,17846,Homa Bay,Mbita,Non-Governmental Organizations,No Partner,No Agency,,Stalled/Inactive,On Premises,Not Found,Not Found,7/13/2025 5:15,
1024,Dida Dispensary,11305,Kilifi,Ganze,Ministry of Health,Stawisha Pwani,DOS,KenyaEMR,Active,On Premises,-3.42885,39.80529,7/13/2025 5:15,
3178,Dienya Health Centre,13533,Siaya,Gem,Ministry of Health,CHS Shinda Tena,CDC,KenyaEMR,Active,On Cloud,0.00154,34.40699,7/13/2025 5:15,
1141,Difathas Health Centre,10110,Kirinyaga,Kirinyaga South,Ministry of Health,Wezesha Afya,CDC,KenyaEMR,Active,On Premises,-0.55419,37.40213,7/13/2025 5:15,
3698,Diff Health Centre,13328,Wajir,Wajir South,Ministry of Health,No Partner,No Agency,,Stalled/Inactive,On Premises,0.99408,40.95947,7/13/2025 5:15,
2840,Diguna Dispensary,14403,Nandi,Tinderet,Other Faith Based,No Partner,No Agency,,Stalled/Inactive,On Premises,-0.07142,35.33921,7/13/2025 5:15,
1993,Dirib Gombo Dispensary,11986,Marsabit,Saku,Kenya Episcopal Conference-Catholic Secretariat,No Partner,No Agency,,,On Premises,2.28624,38.06136,7/13/2025 5:15,
1367,Disciples of Mercy Clinic,13534,Kisumu,Kisumu East,Kenya Episcopal Conference-Catholic Secretariat,Nuru Ya Mtoto,DOS,KenyaEMR,Active,On Premises,-0.05596,34.80129,7/13/2025 5:15,
3318,Divine Mercy Eldoro Catholic Dispensary,11365,Taita Taveta,Taveta,Kenya Episcopal Conference- Catholic Secretariat,Stawisha Pwani,DOS,KenyaEMR,Active,On Premises,Not Found,Not Found,7/13/2025 5:15,
2399,Diwopa Health Centre,12917,Nairobi,Embakasi Central,Kenya Episcopal Conference-Catholic Secretariat,No Partner,No Agency,,,On Premises,-1.26945,36.91425,7/13/2025 5:15,
2400,Dog Unit Dispensary (O P Kenya Police),12919,Nairobi,Langata,Other Public Institution,CIHEB CONNECT,CDC,KenyaEMR,Active,On Premises,-1.32213,36.77173,7/13/2025 5:15,
1724,Doldol Sub District Hospital,14404,Laikipia,Laikipia North,Ministry of Health,Tujenge Jamii Activity,DOS,KenyaEMR,Active,On Premises,0.39166,37.16561,7/13/2025 5:15,
3179,Dolphil Nursing & Maternity Home,13535,Siaya,Gem,Christian Health Association of Kenya,CHS Shinda Tena,CDC,KenyaEMR,Active,On Cloud,0.04515,34.5611,7/13/2025 5:15,
2325,Don Bosco Catholic Dispensary,10112,Muranga,Muranga south,Kenya Episcopal Conference-Catholic Secretariat,Aids Healthcare Foundation Kenya,AHF,KenyaEMR,Active,On Premises,-0.90836,37.1974,7/13/2025 5:15,
1863,Donyo Sabuk Dispensary,16432,Machakos,Matungulu,Ministry of Health,CIHEB PACT IMARA,CDC,KenyaEMR,Active,On Premises,-1.08458,37.25309,7/13/2025 5:15,
2610,Dr Maina Ruga Medical Clinic,20106,Nairobi,Starehe,Private Practice - General Practitioner,No Partner,No Agency,,,On Premises,-1.27461,36.83143,7/13/2025 5:15,
2818,Dr Mwangi,20554,Nakuru,Nakuru East,Private Practice - General Practitioner,No Partner,No Agency,,Stalled/Inactive,On Premises,-0.028353,36.07529,7/13/2025 5:15,
2816,DR. B.K.Kariuki,20552,Nakuru,Nakuru East,Private Practice - Medical Specialist,No Partner,No Agency,,Stalled/Inactive,On Premises,Not Found,Not Found,7/13/2025 5:15,
2817,Dr. Babu Bora Clinic,20553,Nakuru,Nakuru East,Private Practice - Medical Specialist,No Partner,No Agency,,,On Premises,Not Found,Not Found,7/13/2025 5:15,
2612,Dr. Charles J.R. Opondo,20393,Nairobi,Dagoretti North,Private Practice - General Practitioner,Fahari ya Jamii,DOS,KenyaEMR,Active,On Cloud,Not Found,Not Found,7/13/2025 5:15,
2614,Dr. K.Gicheru Upperhill Centre,20397,Nairobi,Dagoretti North,Private Practice - General Practitioner,No Partner,No Agency,,,On Cloud,Not Found,Not Found,7/13/2025 5:15,
2613,Dr.P.W.Kamau&Associates(Upper Hill Medical Centre),20396,Nairobi,Dagoretti North,Private Practice - General Practitioner,Fahari ya Jamii,DOS,KenyaEMR,Active,On Cloud,-1.29472,36.80651,7/13/2025 5:15,
107,Dreamland Mc Hospital,15864,Bungoma,Kimilili,Other Faith Based,Dumisha Afya,DOS,KenyaEMR,Active,On Premises,Not Found,Not Found,7/13/2025 5:15,
2401,Dreams Centre Dispensary (Langata),12929,Nairobi,Langata,Kenya Episcopal Conference-Catholic Secretariat,CIHEB CONNECT,CDC,KenyaEMR,Active,On Premises,-1.34111,36.75437,7/13/2025 5:15,
2316,Drop In Service Centre,20059,Mombasa,Mvita,Non-Governmental Organizations,Stawisha Pwani,DOS,KenyaEMR,Active,On Premises,-4.06221,39.66703,7/13/2025 5:15,
690,Drop Inn Ray Clinic,16668,Kajiado,Kajiado North,Non-Governmental Organizations,No Partner,No Agency,,Stalled/Inactive,On Premises,-1.38778,36.7523,7/13/2025 5:15,
1994,Dukana Health Centre (North Horr),11990,Marsabit,North Horr,Ministry of Health,No Partner,No Agency,,,On Premises,3.99819,37.27031,7/13/2025 5:15,
2677,Dundori Health Centre,14424,Nakuru,Nakuru North,Ministry of Health,Tujenge Jamii Activity,DOS,KenyaEMR,Active,On Premises,-0.25061,36.23326,7/13/2025 5:15,
1892,Dwa Health Centre,11991,Makueni,Kibwezi East,Company Medical Service,No Partner,No Agency,,Stalled/Inactive,On Premises,-2.39765,38.01388,7/13/2025 5:15,
1025,Dzikunze Dispensary,11359,Kilifi,Ganze,Ministry of Health,Stawisha Pwani,DOS,KenyaEMR,Active,On Premises,-3.29437,39.74882,7/13/2025 5:15,
2619,Eagle Health Care Solution,21146,Nairobi,Westlands,Private Practice - Nurse / Midwifery,No Partner,No Agency,,Stalled/Inactive,On Premises,-1.26663,36.74867,7/13/2025 5:15,
1771,East Laikipia Dispensary,21122,Laikipia,Laikipia North,Ministry of Health,No Partner,No Agency,,,On Premises,0.10678,37.21163,7/13/2025 5:15,
2402,Eastleigh Health Centre,12930,Nairobi,Kamukunji,Local Authority,CIHEB CONNECT,CDC,KenyaEMR,Active,On Cloud,-1.27175,36.85087,7/13/2025 5:15,
917,Ebenezer Medical Clinic (Lari),10158,Kiambu,Lari,Private Practice - Nurse / Midwife,No Partner,No Agency,,Stalled/Inactive,On Premises,-1.0401,36.63841,7/13/2025 5:15,
1218,Eberege Dispensary,13536,Kisii,Bomachoge Borabu,Ministry of Health,LVCT Vukisha 95,CDC,KenyaEMR,Active,On Cloud,-0.90612,34.69099,7/13/2025 5:15,
1219,Ebiosi Dispensary,13537,Kisii,Bobasi,Ministry of Health,LVCT Vukisha 95,CDC,KenyaEMR,Active,On Cloud,-0.84897,34.87589,7/13/2025 5:15,
860,Ebuhala Health Centre,20515,Kakamega,Khwisero,Ministry of Health,Nuru Ya Mtoto,DOS,KenyaEMR,Active,On Premises,0.1357,34.53126,7/13/2025 5:15,
3645,Ebukanga Dispensary,15865,Vihiga,Emuhaya,Ministry of Health,Nuru Ya Mtoto,DOS,,Stalled/Inactive,On Premises,0.08468,34.57881,7/13/2025 5:15,
3687,Ebukoolo Dispensary,17113,Vihiga,Emuhaya,Ministry of Health,Nuru Ya Mtoto,DOS,,,On Premises,0.07013,34.56275,7/13/2025 5:15,
1326,Eburi Dispensary,16975,Kisii,South Mugirango,Ministry of Health,LVCT Vukisha 95,CDC,KenyaEMR,Active,On Cloud,-0.86503,34.62972,7/13/2025 5:15,
2678,Eburru Dispensary,14425,Nakuru,Gilgil,Ministry of Health,No Partner,No Agency,,,On Premises,-0.64815,36.27082,7/13/2025 5:15,
3646,Ebusiratsi Health Centre,15866,Vihiga,Emuhaya,Ministry of Health,Nuru Ya Mtoto,DOS,KenyaEMR,Active,On Premises,0.07941,34.63435,7/13/2025 5:15,
3647,Ebusyubi Dispensary,15867,Vihiga,Luanda,Ministry of Health,Nuru Ya Mtoto,DOS,KenyaEMR,Active,On Premises,0.015824,34.5563,7/13/2025 5:15,
2526,EDARP Donholm Clinic,13220,Nairobi,Embakasi East,Kenya Episcopal Conference-Catholic Secretariat,Coptic Orthodox Church,CDC,ECare,Active,On Premises,-1.30169,36.88849,7/13/2025 5:15,
2556,EDARP Komarock Health Centre,17719,Nairobi,Embakasi Central,Kenya Episcopal Conference-Catholic Secretariat,Coptic Orthodox Church,CDC,ECare,Active,On Premises,-1.26329,36.91206,7/13/2025 5:15,
2549,EDARP Njiru Clinic,17548,Nairobi,Kasarani,Kenya Episcopal Conference-Catholic Secretariat,Coptic Orthodox Church,CDC,ECare,Active,On Premises,-1.25178,36.93799,7/13/2025 5:15,
2507,EDARP Ruai Clinic,13169,Nairobi,Kasarani,Kenya Episcopal Conference-Catholic Secretariat,Coptic Orthodox Church,CDC,ECare,Active,On Premises,-1.26068,36.9999,7/13/2025 5:15,
2517,EDARP Soweto Health Centre,13191,Nairobi,Embakasi East,Kenya Episcopal Conference-Catholic Secretariat,Coptic Orthodox Church,CDC,ECare,Active,On Premises,-1.27951,36.9097,7/13/2025 5:15,
2679,Egerton University,14426,Nakuru,Njoro,Ministry of Health,Tujenge Jamii Activity,DOS,KenyaEMR,Active,On Premises,-0.37295,35.93072,7/13/2025 5:15,
1220,Egetonto Dispensary (Gucha),13538,Kisii,Bomachoge Chache,Ministry of Health,LVCT Vukisha 95,CDC,KenyaEMR,Active,On Cloud,-0.74327,34.70785,7/13/2025 5:15,
1338,Egetuki GOK Dispensary,19984,Kisii,Bomachoge Chache,Ministry of Health,LVCT Vukisha 95,CDC,KenyaEMR,Active,On Cloud,-0.771849,34.7819,7/13/2025 5:15,
1801,Ekalakala Health Centre,11995,Machakos,Masinga,Ministry of Health,CIHEB PACT IMARA,CDC,KenyaEMR,Active,On Premises,-0.97269,37.47285,7/13/2025 5:15,
3648,Ekamanji Dispensary,15868,Vihiga,Luanda,Ministry of Health,Nuru Ya Mtoto,DOS,,Stalled/Inactive,On Premises,0.03427,34.5926,7/13/2025 5:15,
862,Ekambuli Health Centre,20673,Kakamega,Khwisero,Ministry of Health,Nuru Ya Mtoto,DOS,KenyaEMR,Active,On Premises,-0.106466,34.57092,7/13/2025 5:15,
2947,Ekerenyo Sub-District Hospital,13540,Nyamira,Nyamira North,Ministry of Health,Nuru Ya Mtoto,DOS,KenyaEMR,Active,On Premises,-0.52815,34.98799,7/13/2025 5:15,
1316,Ekerubo Dispensary (Kisii South),16422,Kisii,Bonchari,Ministry of Health,LVCT Vukisha 95,CDC,KenyaEMR,Active,On Cloud,-0.70116,34.73971,7/13/2025 5:15,
1222,Ekerubo Dispensary (Masaba),13541,Kisii,Nyaribari Masaba,Ministry of Health,LVCT Vukisha 95,CDC,KenyaEMR,Active,On Cloud,-0.89771,34.94024,7/13/2025 5:15,
108,Ekitale Dispensary,15869,Bungoma,Kanduyi,Ministry of Health,Dumisha Afya,DOS,KenyaEMR,Active,On Premises,0.555681,34.612614,7/13/2025 5:15,
3649,Ekwanda Health Centre,15870,Vihiga,Luanda,Ministry of Health,Nuru Ya Mtoto,DOS,KenyaEMR,Active,On Premises,0.01411,34.57131,7/13/2025 5:15,
2879,Elangata Enterit Dispensary,14427,Narok,Narok South,Ministry of Health,HJF-South Rift Valley,DOD,,Stalled/Inactive,On Premises,-1.47849,35.9195,7/13/2025 5:15,
2680,Elburgon Sub-District Hospital,14431,Nakuru,Molo,Ministry of Health,Tujenge Jamii Activity,DOS,KenyaEMR,Active,On Premises,-0.30606,35.80782,7/13/2025 5:15,
4,Eldama Ravine District Hospital,14432,Baringo,Koibatek,Ministry of Health,Tujenge Jamii Activity,DOS,KenyaEMR,Active,On Premises,0.0467,35.72458,7/13/2025 5:15,
40,Eldume Dispensary,17351,Baringo,Marigat,Ministry of Health,No Partner,No Agency,,,On Premises,0.43994,35.99533,7/13/2025 5:15,
3514,Elelea Health Centre,14436,Turkana,Turkana East,Ministry of Health,No Partner,No Agency,,Stalled/Inactive,On Premises,2.141,36.372,7/13/2025 5:15,
3596,Elgeyo Boader Dispensary,14437,Uasin Gishu,Moiben,Ministry of Health,AMPATH Uzima,DOS,AMRS,Active,On Premises,0.50468,35.42991,7/13/2025 5:15,
109,Elgon View Medical Cottage,15871,Bungoma,Kanduyi,Private Enterprise (Institution),Dumisha Afya,DOS,KenyaEMR,Active,On Premises,0.56893,34.56295,7/13/2025 5:15,
3515,Eliye Springs (AIC) Dispensary,14440,Turkana,Turkana Central,Christian Health Association of Kenya,No Partner,No Agency,,,On Premises,3.242802,36.039565,7/13/2025 5:15,
1995,El-Molo Bay Dispensary,12001,Marsabit,Laisamis,Ministry of Health,No Partner,No Agency,,,On Premises,2.85621,36.7001,7/13/2025 5:15,
843,Eluche,18361,Kakamega,Mumias East,Community,Nuru Ya Mtoto,DOS,,,On Premises,0.3317,34.54226,7/13/2025 5:15,
722,Elukhambi Dispensary,15872,Kakamega,Lurambi,Ministry of Health,Nuru Ya Mtoto,DOS,KenyaEMR,Active,On Premises,0.199222,34.610867,7/13/2025 5:15,
824,Elwangale Health Centre,16714,Kakamega,Khwisero,Ministry of Health,Nuru Ya Mtoto,DOS,,,On Premises,0.148298,34.6726,7/13/2025 5:15,
723,Elwasambi Dispensary,15873,Kakamega,Mumias East,Ministry of Health,Nuru Ya Mtoto,DOS,KenyaEMR,Active,On Premises,0.28893,34.56794,7/13/2025 5:15,
724,Elwesero Model Health Centre,15874,Kakamega,Lurambi,Community,Nuru Ya Mtoto,DOS,KenyaEMR,Active,On Premises,Not Found,Not Found,7/13/2025 5:15,
1971,Emali Model Health Centre,18260,Makueni,Kibwezi West,Ministry of Health,Aids Healthcare Foundation Kenya,AHF,KenyaEMR,Active,On Premises,-2.07437,37.46138,7/13/2025 5:15,
836,Emalindi Health Centre,17409,Kakamega,Khwisero,Ministry of Health,Nuru Ya Mtoto,DOS,,Stalled/Inactive,On Premises,0.13171,34.61713,7/13/2025 5:15,
2880,Emarti Health Centre,14442,Narok,Transmara West,Ministry of Health,HJF-South Rift Valley,DOD,,,On Premises,-1.04563,35.22125,7/13/2025 5:15,
828,Ematiha Dispensary,16867,Kakamega,Navakholo,Ministry of Health,Nuru Ya Mtoto,DOS,,,On Premises,0.36153,34.76605,7/13/2025 5:15,
3650,Ematsuli Dispensary,15875,Vihiga,Emuhaya,Ministry of Health,Nuru Ya Mtoto,DOS,KenyaEMR,Active,On Premises,0.11624,34.63229,7/13/2025 5:15,
2403,Embakasi Health Centre,12935,Nairobi,Embakasi East,Local Authority,CIHEB CONNECT,CDC,KenyaEMR,Active,On Cloud,-1.30618,36.91472,7/13/2025 5:15,
2948,Embonga Health Centre,13543,Nyamira,Nyamira,Ministry of Health,Nuru Ya Mtoto,DOS,,Stalled/Inactive,On Premises,-0.54319,34.88419,7/13/2025 5:15,
389,Embu Children Clinic,12790,Embu,Manyatta,Christian Health Association of Kenya,Jamii Tekelezi,DOS,KenyaEMR,Active,On Premises,-0.54218,37.46597,7/13/2025 5:15,
399,Embu Dice,21117,Embu,Manyatta,Ministry of Health,LVCT Dhibiti,CDC,KenyaEMR,Active,On Premises,Not Found,Not Found,7/13/2025 5:15,
366,Embu Provincial General Hospital,12004,Embu,Manyatta,Ministry of Health,Jamii Tekelezi,DOS,KenyaEMR,Active,On Premises,-0.53679,37.4518,7/13/2025 5:15,
643,Embulbul Catholic Dispensary,14445,Kajiado,Kajiado North,Kenya Episcopal Conference-Catholic Secretariat,Fahari ya Jamii,DOS,KenyaEMR,Active,On Premises,Not Found,Not Found,7/13/2025 5:15,
3630,Emc Kimumu Dispensary,16349,Uasin Gishu,Moiben,Ministry of Health,AMPATH Uzima,DOS,AMRS,Active,On Premises,0.55489,35.32465,7/13/2025 5:15,
2620,Emerging Infectious Disease Center,21215,Nairobi,Westlands,Private Practice - General Practitioner,No Partner,No Agency,,,On Premises,-1.26343,36.811814,7/13/2025 5:15,
1328,Emeroka Dispensary,17272,Kisii,Nyaribari Masaba,Ministry of Health,LVCT Vukisha 95,CDC,KenyaEMR,Active,On Cloud,-0.80833,34.90503,7/13/2025 5:15,
5,Emining Health Centre,14446,Baringo,Mogotio,Ministry of Health,Tujenge Jamii Activity,DOS,KenyaEMR,Active,On Premises,0.14357,35.88708,7/13/2025 5:15,
180,Emmanuel Medical Clinic (Bungoma East),16707,Bungoma,Webuye East,Private Enterprise (Institution),Dumisha Afya,DOS,,Stalled/Inactive,On Premises,0.70971,34.75768,7/13/2025 5:15,
644,Emotoroki Dispensary,14448,Kajiado,Kajiado Central,Ministry of Health,Fahari ya Jamii,DOS,KenyaEMR,Active,On Cloud,-2.29397,37.03052,7/13/2025 5:15,
3651,Emuhaya Sub County Referral Hospital,15876,Vihiga,Luanda,Ministry of Health,Nuru Ya Mtoto,DOS,KenyaEMR,Active,On Premises,0.11259,34.63297,7/13/2025 5:15,
853,Emukaba Dispensary,20039,Kakamega,Lurambi,Ministry of Health,Nuru Ya Mtoto,DOS,KenyaEMR,Active,On Premises,0.34257,34.76333,7/13/2025 5:15,
2881,Emurua Dikirr  Health centre,14452,Narok,Transmara East,Ministry of Health,HJF-South Rift Valley,DOD,KenyaEMR,Active,On Premises,Not Found,Not Found,7/13/2025 5:15,
826,Emusanda Health Centre,16762,Kakamega,Lurambi,Ministry of Health,Nuru Ya Mtoto,DOS,KenyaEMR,Active,On Premises,Not Found,Not Found,7/13/2025 5:15,
3652,Emusenjeli Dispensary,15878,Vihiga,Luanda,Ministry of Health,Nuru Ya Mtoto,DOS,,,On Premises,0.0406,34.64638,7/13/2025 5:15,
3686,Emusire Sub County Hospital,16979,Vihiga,Emuhaya,Ministry of Health,Nuru Ya Mtoto,DOS,KenyaEMR,Active,On Premises,Not Found,Not Found,7/13/2025 5:15,
783,Emutsesa Health Centre,16055,Kakamega,Khwisero,Ministry of Health,Nuru Ya Mtoto,DOS,KenyaEMR,Active,On Premises,Not Found,Not Found,7/13/2025 5:15,
2882,Enabelbel Health Centre,14453,Narok,Narok North,Ministry of Health,HJF-South Rift Valley,DOD,KenyaEMR,Active,On Premises,-0.79673,35.89382,7/13/2025 5:15,
2883,Enaibor Ajijik Dispensary,14454,Narok,Narok North,Ministry of Health,HJF-South Rift Valley,DOD,KenyaEMR,Active,On Premises,-0.77156,36.16754,7/13/2025 5:15,
2938,Enaramatishoreki Health Centre,20915,Narok,Narok East,Ministry of Health,No Partner,No Agency,,,On Premises,-1.35246,35.96964,7/13/2025 5:15,
3082,Endarasha Rural Health Centre,10170,Nyeri,Kieni West,Ministry of Health,NYERI COUNTY DEPARTMENT OF HEALTH SERVICES,CDC,KenyaEMR,Active,On Premises,-0.30678,36.79406,7/13/2025 5:15,
1505,Endau Dispensary,12008,Kitui,Kitui East,Ministry of Health,CIHEB PACT IMARA,CDC,KenyaEMR,Active,On Premises,-1.31745,38.51505,7/13/2025 5:15,
3459,Endebess Sub-County Hospital,14455,Trans Nzoia,Endebess,Ministry of Health,AMPATH Uzima,DOS,KenyaEMR,Active,On Premises,Not Found,Not Found,7/13/2025 5:15,
2949,Endiba Health Centre,13544,Nyamira,Borabu,Ministry of Health,Nuru Ya Mtoto,DOS,KenyaEMR,Active,On Premises,-0.55994,34.96206,7/13/2025 5:15,
338,Endo Health Centre,14456,Elgeyo Marakwet,Marakwet East,Kenya Episcopal Conference-Catholic Secretariat,AMPATH Uzima,DOS,,,On Premises,1.26352,35.6262,7/13/2025 5:15,
2681,Engashura Health Centre,14458,Nakuru,Nakuru North,Ministry of Health,Tujenge Jamii Activity,DOS,KenyaEMR,Active,On Premises,-0.25958,36.13405,7/13/2025 5:15,
3033,Engineer District Hospital,10171,Nyandarua,Kinangop,Ministry of Health,Jamii Tekelezi,DOS,KenyaEMR,Active,On Premises,-0.61053,36.5919,7/13/2025 5:15,
2935,Engos Health Centre Africa Mission Services,17910,Narok,Transmara West,Christian Health Association of Kenya,HJF-South Rift Valley,DOD,KenyaEMR,Active,On Premises,Not Found,Not Found,7/13/2025 5:15,
2884,Enoosaen Health Centre,14465,Narok,Transmara West,Ministry of Health,HJF-South Rift Valley,DOD,KenyaEMR,Active,On Premises,-1.0223,34.73355,7/13/2025 5:15,
1223,Entanda Dispensary,13545,Kisii,Kitutu Chache North,Ministry of Health,LVCT Vukisha 95,CDC,KenyaEMR,Active,On Cloud,-0.56873,34.84354,7/13/2025 5:15,
1318,Entanke Dispensary,16424,Kisii,Bonchari,Community,LVCT Vukisha 95,CDC,KenyaEMR,Active,On Cloud,-0.6124,34.6743,7/13/2025 5:15,
645,Entarara Health Centre,14467,Kajiado,Loitokitok,Ministry of Health,Fahari ya Jamii,DOS,KenyaEMR,Active,On Premises,-2.9954,37.62565,7/13/2025 5:15,
2886,Entasekera Health Centre,14479,Narok,Narok South,Other Faith Based,HJF-South Rift Valley,DOD,KenyaEMR,Active,On Premises,-1.85142,35.85272,7/13/2025 5:15,
646,Entasopia Health Centre,14469,Kajiado,Kajiado West,Ministry of Health,Fahari ya Jamii,DOS,KenyaEMR,Active,On Cloud,-1.78378,36.0535,7/13/2025 5:15,
2885,Entontol Dispensary,14471,Narok,Narok North,Ministry of Health,HJF-South Rift Valley,DOD,,Stalled/Inactive,On Premises,-0.86997,36.03315,7/13/2025 5:15,
3653,Enzaro Health Centre,15879,Vihiga,Vihiga,Ministry of Health,Nuru Ya Mtoto,DOS,KenyaEMR,Active,On Premises,0.00135,34.70239,7/13/2025 5:15,
3654,Equator Nursing and Maternity Home,15880,Vihiga,Luanda,Private Practice - Unspecified,Nuru Ya Mtoto,DOS,KenyaEMR,Active,On Premises,0.03427,34.5926,7/13/2025 5:15,
2623,Equity Afia Buruburu,22084,Nairobi,Makadara,Private Practice - General Practitioner,No Partner,No Agency,,Stalled/Inactive,On Premises,Not Found,Not Found,7/13/2025 5:15,
1003,Equity Afia m/c,22434,Kiambu,Thika Town,Private Practice - General Practitioner,No Partner,No Agency,,Stalled/Inactive,On Premises,Not Found,Not Found,7/13/2025 5:15,
1224,Eramba Dispensary,13546,Kisii,Kitutu Chache North,Ministry of Health,LVCT Vukisha 95,CDC,KenyaEMR,Active,On Cloud,-0.546938,34.7811,7/13/2025 5:15,
627,Eremet Dispensary,12012,Isiolo,Isiolo,Ministry of Health,No Partner,No Agency,,,On Premises,0.43324,37.6026,7/13/2025 5:15,
6,Esageri Health Centre,14477,Baringo,Koibatek,Ministry of Health,Tujenge Jamii Activity,DOS,KenyaEMR,Active,On Premises,-0.01726,35.82863,7/13/2025 5:15,
2950,Esani Sub-District Hospital,13548,Nyamira,Masaba North,Ministry of Health,Nuru Ya Mtoto,DOS,KenyaEMR,Active,On Premises,-0.695329,34.9435,7/13/2025 5:15,
850,Eshiabwali Health Centre,19899,Kakamega,Khwisero,Ministry of Health,Nuru Ya Mtoto,DOS,,Stalled/Inactive,On Premises,0.12723,34.63458,7/13/2025 5:15,
726,Eshikhuyu Dispensary,15882,Kakamega,Lurambi,Ministry of Health,Nuru Ya Mtoto,DOS,KenyaEMR,Active,On Premises,0.26474,34.65593,7/13/2025 5:15,
833,Eshikulu Dispensary,17217,Kakamega,Mumias West,Ministry of Health,Nuru Ya Mtoto,DOS,KenyaEMR,Active,On Premises,0.30169,34.43925,7/13/2025 5:15,
805,Eshimukoko Health Centre,16114,Kakamega,Butere,Ministry of Health,Nuru Ya Mtoto,DOS,KenyaEMR,Active,On Premises,0.21534,34.56581,7/13/2025 5:15,
806,Eshinutsa Health Centre,16115,Kakamega,Khwisero,Ministry of Health,Nuru Ya Mtoto,DOS,KenyaEMR,Active,On Premises,0.15045,34.63458,7/13/2025 5:15,
727,Eshiongo Dispensary,15883,Kakamega,Navakholo,Ministry of Health,Nuru Ya Mtoto,DOS,KenyaEMR,Active,On Premises,0.31418,34.69385,7/13/2025 5:15,
830,Eshirembe Dispensary,17133,Kakamega,Lurambi,Ministry of Health,Nuru Ya Mtoto,DOS,,,On Premises,0.25437,34.62122,7/13/2025 5:15,
1629,Eshu Dispensary,11368,Kwale,Msambweni,Ministry of Health,Stawisha Pwani,DOS,KenyaEMR,Active,On Premises,-4.41492,39.3469,7/13/2025 5:15,
2951,Esianyi Dispensary,13549,Nyamira,Nyamira North,Ministry of Health,Nuru Ya Mtoto,DOS,KenyaEMR,Active,On Premises,-0.47118,34.94123,7/13/2025 5:15,
3655,Esiarambatsi Health Centre,15885,Vihiga,Emuhaya,Ministry of Health,Nuru Ya Mtoto,DOS,KenyaEMR,Active,On Premises,0.08084,34.60738,7/13/2025 5:15,
307,Esikulu Dispensary,20171,Busia,Matayos,Ministry of Health,No Partner,No Agency,,,On Premises,0.004118,34.15664,7/13/2025 5:15,
3656,Esitsaba Dispensary,15887,Vihiga,Luanda,Ministry of Health,Nuru Ya Mtoto,DOS,,,On Premises,0.00975,34.61374,7/13/2025 5:15,
2682,Esther Memorial Nursing Home,14478,Nakuru,Nakuru North,Private Enterprise (Institution),No Partner,No Agency,,,On Premises,-0.23076,36.11773,7/13/2025 5:15,
1225,Etago Sub-District Hospital,13550,Kisii,South Mugirango,Ministry of Health,LVCT Vukisha 95,CDC,KenyaEMR,Active,On Cloud,-0.90237,34.6593,7/13/2025 5:15,
1725,Ethi Dispensary,14480,Laikipia,Laikipia North,Christian Health Association of Kenya,No Partner,No Agency,,,On Premises,0.02148,37.07114,7/13/2025 5:15,
2952,Etono Health Centre,13551,Nyamira,Nyamira North,Ministry of Health,Nuru Ya Mtoto,DOS,KenyaEMR,Active,On Premises,-0.51132,34.9543,7/13/2025 5:15,
2625,Euraka Medical Centre,22351,Nairobi,Embakasi East,Private Practice - Private Institution Academic,No Partner,No Agency,,,On Premises,Not Found,Not Found,7/13/2025 5:15,
1726,Ewaso Dispensary,14483,Laikipia,Laikipia North,Ministry of Health,No Partner,No Agency,,,On Premises,0.56029,36.90231,7/13/2025 5:15,
2887,Ewaso Ngiro Dispensary,14484,Narok,Narok North,Ministry of Health,HJF-South Rift Valley,DOD,,,On Premises,-1.10613,35.8072,7/13/2025 5:15,
2888,Ewaso Ngiro Health Centre,14485,Narok,Narok South,Other Faith Based,CHAK CHAP STAWISHA,CDC,KenyaEMR,Active,On Premises,-1.15086,35.76178,7/13/2025 5:15,
647,Ewuaso Kedong Health Centre,14486,Kajiado,Kajiado West,Ministry of Health,Fahari ya Jamii,DOS,KenyaEMR,Active,On Premises,Not Found,Not Found,7/13/2025 5:15,
1506,Faith Nursing Home (Ikutha),12013,Kitui,Kitui South,Private Practice - Nurse / Midwife,CHAK CHAP STAWISHA,CDC,KenyaEMR,Active,On Premises,-2.06618,38.17985,7/13/2025 5:15,
2405,Family Care Medical Centre & Maternity,12942,Nairobi,Langata,Non-Governmental Organizations,No Partner,No Agency,,,On Premises,-1.31313,36.81687,7/13/2025 5:15,
2023,Family Care Medical Centre(Meru),12015,Meru,Imenti North,Private Practice,Jamii Tekelezi,DOS,KenyaEMR,Active,On Premises,Not Found,Not Found,7/13/2025 5:15,
981,Family Health Options Kenya Clinic,16756,Kiambu,Thika Town,Non-Governmental Organizations,No Partner,No Agency,,Stalled/Inactive,On Premises,-1.03051,37.07241,7/13/2025 5:15,
2666,Family Healthoptions Kenya (Nakuru),14177,Nakuru,Nakuru East,Non-Governmental Organizations,Tujenge Jamii Activity,DOS,KenyaEMR,Active,On Premises,-0.28742,36.07682,7/13/2025 5:15,
2404,Family Life Promotions,12941,Nairobi,Makadara,Private Enterprise (Institution),Fahari ya Jamii,DOS,KenyaEMR,Active,On Cloud,Not Found,Not Found,7/13/2025 5:15,
2237,Family Medical Centre (Kisauni),11370,Mombasa,Nyali,Private Enterprise (Institution),No Partner,No Agency,,,On Premises,-4.02509,39.68749,7/13/2025 5:15,
2607,Farmers choice wellness centre clinic,20078,Nairobi,Roysambu,Private Enterprise (Institution),Fahari ya Jamii,DOS,KenyaEMR,Active,On Cloud,-1.18628,36.9101,7/13/2025 5:15,
648,Fatima Health Centre (Lenkism),14493,Kajiado,Loitokitok,Kenya Episcopal Conference-Catholic Secretariat,Fahari ya Jamii,DOS,KenyaEMR,Active,On Cloud,-2.39994,37.21487,7/13/2025 5:15,
649,Fatima Maternity Hospital,14494,Kajiado,Kajiado North,Kenya Episcopal Conference-Catholic Secretariat,Fahari ya Jamii,DOS,KenyaEMR,Active,On Premises,-1.39545,36.7445,7/13/2025 5:15,
1778,Faza Hospital,11373,Lamu,Lamu East,Ministry of Health,No Partner,No Agency,,Stalled/Inactive,On Premises,-2.05792,41.11122,7/13/2025 5:15,
2683,Fitc Dispensary,14498,Nakuru,Nakuru West,Ministry of Health,Tujenge Jamii Activity,DOS,KenyaEMR,Active,On Premises,-0.16941,36.03225,7/13/2025 5:15,
2693,Flamingo Medical Centre,14551,Nakuru,Naivasha,Ministry of Health,Tujenge Jamii Activity,DOS,KenyaEMR,Active,On Premises,Not Found,Not Found,7/13/2025 5:15,
339,Flax Dispensary,14499,Elgeyo Marakwet,Keiyo South,Ministry of Health,AMPATH Uzima,DOS,KenyaEMR,Active,On Premises,0.37328,35.48215,7/13/2025 5:15,
340,Flourspar Health Centre,14500,Elgeyo Marakwet,Keiyo South,Private Enterprise (Institution),AMPATH Uzima,DOS,KenyaEMR,Active,On Premises,0.32281,35.64258,7/13/2025 5:15,
872,Forttenan Sub District Hospital,14501,Kericho,Kipkelion West,Ministry of Health,HJF-South Rift Valley,DOD,KenyaEMR,Active,On Premises,-0.13723,35.34428,7/13/2025 5:15,
3635,Fountain Healthcare,19173,Uasin Gishu,Ainabkoi,Private Practice - Medical Specialist,AMPATH Uzima,DOS,AMRS,Active,On Premises,0.50927,35.28773,7/13/2025 5:15,
2795,Fountain Medical Clinic,17787,Nakuru,Nakuru East,Christian Health Association of Kenya,No Partner,No Agency,,,On Premises,-0.3233,36.14907,7/13/2025 5:15,
650,Fr Andrian Heath Centre,14503,Kajiado,Kajiado Central,Kenya Episcopal Conference-Catholic Secretariat,Fahari ya Jamii,DOS,KenyaEMR,Active,On Cloud,-1.841986,36.791349,7/13/2025 5:15,
2576,Fremo Medical Centre,18612,Nairobi,Dagoretti South,Private Enterprise (Institution),Fahari ya Jamii,DOS,KenyaEMR,Active,On Cloud,-1.28993,36.74428,7/13/2025 5:15,
1026,Fundi Issa Dispensary,11379,Kilifi,Magarini,Ministry of Health,No Partner,No Agency,,,On Premises,-2.92982,40.09493,7/13/2025 5:15,
3285,Future Life Dispensary,17522,Siaya,Alego Usonga,Other Faith Based,Siaya CHMT,CDC,KenyaEMR,Active,On Premises,0.03721,34.287,7/13/2025 5:15,
401,G K Prisons (Thika),10289,Garissa,Garissa,Ministry of Health,No Partner,No Agency,KenyaEMR,Stalled/Inactive,On Premises,-1.03929,37.078,7/13/2025 5:15,
1887,G.K Prison Dispensary yatta,23625,Machakos,Yatta,Ministry of Health,LVCT Prisons,CDC,KenyaEMR,Stalled/Inactive,On Premises,Not Found,Not Found,7/13/2025 5:15,
918,Gachege dispensary,10194,Kiambu,Gatundu North,Ministry of Health,LVCT Dhibiti,CDC,KenyaEMR,Active,On Cloud,-0.90974,36.90974,7/13/2025 5:15,
993,Gachororo health centre,18608,Kiambu,Juja,Ministry of Health,Kiambu County Endeleza Program,CDC,KenyaEMR,Active,On Cloud,-1.08697,37.02015,7/13/2025 5:15,
3412,Gaciongo Dispensary,12024,Tharaka-Nithi,Tharaka North,Ministry of Health,No Partner,No Agency,,,On Premises,-0.01172,38.01706,7/13/2025 5:15,
1142,Gaciongo Dispensary (Kirinyaga),10197,Kirinyaga,Kirinyaga East,Ministry of Health,No Partner,No Agency,,Stalled/Inactive,On Premises,-0.47597,37.41332,7/13/2025 5:15,
628,Gafarsa Health Centre,12025,Isiolo,Garbatulla,Ministry of Health,No Partner,No Agency,,Stalled/Inactive,On Premises,0.93696,38.58865,7/13/2025 5:15,
1027,Gahaleni Dispensary,11380,Kilifi,Malindi,Ministry of Health,Stawisha Pwani,DOS,KenyaEMR,Active,On Premises,-3.27017,40.0951,7/13/2025 5:15,
2326,Gaichanjiru Hospital,10199,Muranga,Kandara,Ministry of Health,Tujitegemee,CDC,KenyaEMR,Active,On Cloud,-0.88479,37.05184,7/13/2025 5:15,
3083,Gakawa Dispensary,10200,Nyeri,Kieni East,Ministry of Health,NYERI COUNTY DEPARTMENT OF HEALTH SERVICES,CDC,KenyaEMR,Active,On Premises,-0.01878,37.06419,7/13/2025 5:15,
919,Gakoe Health centre,10202,Kiambu,Gatundu North,Ministry of Health,LVCT Dhibiti,CDC,KenyaEMR,Active,On Cloud,-1.04491,37.18638,7/13/2025 5:15,
2024,Gakoromone Dispensary,12027,Meru,Imenti North,Ministry of Health,Jamii Tekelezi,DOS,KenyaEMR,Active,On Premises,0.04863,37.66587,7/13/2025 5:15,
639,GALAXY,22162,Isiolo,Isiolo,Private Practice - General Practitioner,No Partner,No Agency,,,On Premises,Not Found,Not Found,7/13/2025 5:15,
1029,Ganda Dispensary,11382,Kilifi,Malindi,Ministry of Health,Stawisha Pwani,DOS,KenyaEMR,Active,On Premises,-3.21609,40.06558,7/13/2025 5:15,
1030,Ganze Health Centre,11383,Kilifi,Ganze,Ministry of Health,Stawisha Pwani,DOS,KenyaEMR,Active,On Premises,-3.542621,39.691999,7/13/2025 5:15,
1031,Garashi Dispensary,11384,Kilifi,Magarini,Ministry of Health,Stawisha Pwani,DOS,KenyaEMR,Active,On Premises,-3.13088,39.8913,7/13/2025 5:15,
629,Garbatulla District Hospital,12029,Isiolo,Garbatulla,Ministry of Health,No Partner,No Agency,,,On Premises,0.52697,38.51422,7/13/2025 5:15,
404,Garissa County Referral Hospital,13346,Garissa,Garissa,Ministry of Health,No Partner,No Agency,,Stalled/Inactive,On Premises,Not Found,Not Found,7/13/2025 5:15,
2406,Garrison Health Centre,12947,Nairobi,Embakasi East,Armed Forces,HJF-Nairobi,DOD,KenyaEMR,Active,On Premises,Not Found,Not Found,7/13/2025 5:15,
3387,Garsen Health Centre,11385,Tana River,Garsen,Ministry of Health,No Partner,No Agency,,,On Premises,-2.27086,40.10759,7/13/2025 5:15,
